Place_id,Place,Price Range,Types,Address,Postal Code,City,State,Country,Latitude,Longitude
ChIJnaCSkq5AmYARh_c4dM7FxUA,Reno,,"locality, political","Reno, NV, USA",,Reno,Nevada,United States,39.529919,-119.8142691
ChIJRYQdLTRHmYARu8Op-jB28TE,Silver Legacy Resort Casino,,"casino, lodging, point_of_interest, establishment","407 N Virginia St, Reno, NV 89501, USA",89501,Reno,Nevada,United States,39.5304918,-119.8149946
ChIJ080StzVHmYARD-YbD1sKARw,Eldorado Reno Resort Casino,,"lodging, point_of_interest, establishment","345 N Virginia St, Reno, NV 89501, USA",89501,Reno,Nevada,United States,39.5291595,-119.8146488
ChIJ8ZZtmjZHmYARPmy0CY53NYo,Circus Circus Reno,,"lodging, point_of_interest, establishment","500 N Sierra St, Reno, NV 89503, USA",89503,Reno,Nevada,United States,39.5313968,-119.8156128
ChIJBzXVmTNHmYAR6ipRaf8zVCE,J Resort,,"casino, lodging, point_of_interest, establishment","345 N Arlington Ave, Reno, NV 89501, USA",89501,Reno,Nevada,United States,39.5281442,-119.8188873
ChIJG7qnuls_mYARweP739kMgh8,Grand Sierra Resort and Casino,,"casino, movie_theater, night_club, lodging, bar, restaurant, food, point_of_interest, establishment","2500 E 2nd St, Reno, NV 89595, USA",89595,Reno,Nevada,United States,39.5230411,-119.7812235
ChIJX8m41WY_mYAR7oBrdT7oP9M,"Holiday Inn Express & Suites Reno Airport, an IHG Hotel",,"lodging, point_of_interest, establishment","2375 Market St, Reno, NV 89502, USA",89502,Reno,Nevada,United States,39.513984,-119.782839
ChIJ07LkRY9AmYARbPPabWOgb1I,Peppermill Resort Spa Casino,,"casino, spa, restaurant, food, lodging, point_of_interest, establishment","2707 S Virginia St, Reno, NV 89502, USA",89502,Reno,Nevada,United States,39.4976865,-119.801139
ChIJxQpVnjo_mYARW9gkVzXSKgY,Nugget Casino Resort,,"casino, lodging, point_of_interest, establishment","1100 Nugget Ave, Sparks, NV 89431, USA",89431,Sparks,Nevada,United States,39.53334069999999,-119.7582759
ChIJ38bZfCc_mYARVaorzvHHMps,Holiday Inn Reno-Sparks,,"lodging, point_of_interest, establishment","55 East Nugget Ave, Sparks, NV 89431, USA",89431,Sparks,Nevada,United States,39.53340499999999,-119.742487
ChIJnaCSkq5AmYARh_c4dM7FxUA,Reno,,"locality, political","Reno, NV, USA",,Reno,Nevada,United States,39.529919,-119.8142691
ChIJRYQdLTRHmYARu8Op-jB28TE,Silver Legacy Resort Casino,,"casino, lodging, point_of_interest, establishment","407 N Virginia St, Reno, NV 89501, USA",89501,Reno,Nevada,United States,39.5304918,-119.8149946
ChIJ080StzVHmYARD-YbD1sKARw,Eldorado Reno Resort Casino,,"lodging, point_of_interest, establishment","345 N Virginia St, Reno, NV 89501, USA",89501,Reno,Nevada,United States,39.5291595,-119.8146488
ChIJ8ZZtmjZHmYARPmy0CY53NYo,Circus Circus Reno,,"lodging, point_of_interest, establishment","500 N Sierra St, Reno, NV 89503, USA",89503,Reno,Nevada,United States,39.5313968,-119.8156128
ChIJBzXVmTNHmYAR6ipRaf8zVCE,J Resort,,"casino, lodging, point_of_interest, establishment","345 N Arlington Ave, Reno, NV 89501, USA",89501,Reno,Nevada,United States,39.5281442,-119.8188873
ChIJG7qnuls_mYARweP739kMgh8,Grand Sierra Resort and Casino,,"casino, movie_theater, night_club, lodging, bar, restaurant, food, point_of_interest, establishment","2500 E 2nd St, Reno, NV 89595, USA",89595,Reno,Nevada,United States,39.5230411,-119.7812235
ChIJX8m41WY_mYAR7oBrdT7oP9M,"Holiday Inn Express & Suites Reno Airport, an IHG Hotel",,"lodging, point_of_interest, establishment","2375 Market St, Reno, NV 89502, USA",89502,Reno,Nevada,United States,39.513984,-119.782839
ChIJ07LkRY9AmYARbPPabWOgb1I,Peppermill Resort Spa Casino,,"spa, casino, lodging, restaurant, point_of_interest, food, establishment","2707 S Virginia St, Reno, NV 89502, USA",89502,Reno,Nevada,United States,39.4976865,-119.801139
ChIJxQpVnjo_mYARW9gkVzXSKgY,Nugget Casino Resort,,"casino, lodging, point_of_interest, establishment","1100 Nugget Ave, Sparks, NV 89431, USA",89431,Sparks,Nevada,United States,39.53334069999999,-119.7582759
ChIJ38bZfCc_mYARVaorzvHHMps,Holiday Inn Reno-Sparks,,"lodging, point_of_interest, establishment","55 East Nugget Ave, Sparks, NV 89431, USA",89431,Sparks,Nevada,United States,39.53340499999999,-119.742487
ChIJnaCSkq5AmYARh_c4dM7FxUA,Reno,,"locality, political","Reno, NV, USA",,Reno,Nevada,United States,39.529919,-119.8142691
ChIJRYQdLTRHmYARu8Op-jB28TE,Silver Legacy Resort Casino,,"casino, lodging, point_of_interest, establishment","407 N Virginia St, Reno, NV 89501, USA",89501,Reno,Nevada,United States,39.5304918,-119.8149946
ChIJ080StzVHmYARD-YbD1sKARw,Eldorado Reno Resort Casino,,"lodging, point_of_interest, establishment","345 N Virginia St, Reno, NV 89501, USA",89501,Reno,Nevada,United States,39.5291595,-119.8146488
ChIJ8ZZtmjZHmYARPmy0CY53NYo,Circus Circus Reno,,"lodging, point_of_interest, establishment","500 N Sierra St, Reno, NV 89503, USA",89503,Reno,Nevada,United States,39.5313968,-119.8156128
ChIJBzXVmTNHmYAR6ipRaf8zVCE,J Resort,,"casino, lodging, point_of_interest, establishment","345 N Arlington Ave, Reno, NV 89501, USA",89501,Reno,Nevada,United States,39.5281442,-119.8188873
ChIJG7qnuls_mYARweP739kMgh8,Grand Sierra Resort and Casino,,"casino, movie_theater, night_club, bar, lodging, restaurant, food, point_of_interest, establishment","2500 E 2nd St, Reno, NV 89595, USA",89595,Reno,Nevada,United States,39.5230411,-119.7812235
ChIJX8m41WY_mYAR7oBrdT7oP9M,"Holiday Inn Express & Suites Reno Airport, an IHG Hotel",,"lodging, point_of_interest, establishment","2375 Market St, Reno, NV 89502, USA",89502,Reno,Nevada,United States,39.513984,-119.782839
ChIJ07LkRY9AmYARbPPabWOgb1I,Peppermill Resort Spa Casino,,"casino, spa, lodging, restaurant, food, point_of_interest, establishment","2707 S Virginia St, Reno, NV 89502, USA",89502,Reno,Nevada,United States,39.4976865,-119.801139
ChIJxQpVnjo_mYARW9gkVzXSKgY,Nugget Casino Resort,,"casino, lodging, point_of_interest, establishment","1100 Nugget Ave, Sparks, NV 89431, USA",89431,Sparks,Nevada,United States,39.53334069999999,-119.7582759
ChIJ38bZfCc_mYARVaorzvHHMps,Holiday Inn Reno-Sparks,,"lodging, point_of_interest, establishment","55 East Nugget Ave, Sparks, NV 89431, USA",89431,Sparks,Nevada,United States,39.53340499999999,-119.742487
ChIJnaCSkq5AmYARh_c4dM7FxUA,Reno,,"locality, political","Reno, NV, USA",,Reno,Nevada,United States,39.529919,-119.8142691
ChIJRYQdLTRHmYARu8Op-jB28TE,Silver Legacy Resort Casino,,"casino, lodging, point_of_interest, establishment","407 N Virginia St, Reno, NV 89501, USA",89501,Reno,Nevada,United States,39.5304918,-119.8149946
ChIJ080StzVHmYARD-YbD1sKARw,Eldorado Reno Resort Casino,,"lodging, point_of_interest, establishment","345 N Virginia St, Reno, NV 89501, USA",89501,Reno,Nevada,United States,39.5291595,-119.8146488
ChIJ8ZZtmjZHmYARPmy0CY53NYo,Circus Circus Reno,,"lodging, point_of_interest, establishment","500 N Sierra St, Reno, NV 89503, USA",89503,Reno,Nevada,United States,39.5313968,-119.8156128
ChIJBzXVmTNHmYAR6ipRaf8zVCE,J Resort,,"casino, lodging, point_of_interest, establishment","345 N Arlington Ave, Reno, NV 89501, USA",89501,Reno,Nevada,United States,39.5281442,-119.8188873
ChIJG7qnuls_mYARweP739kMgh8,Grand Sierra Resort and Casino,,"movie_theater, casino, bar, night_club, lodging, restaurant, point_of_interest, food, establishment","2500 E 2nd St, Reno, NV 89595, USA",89595,Reno,Nevada,United States,39.5230411,-119.7812235
ChIJX8m41WY_mYAR7oBrdT7oP9M,"Holiday Inn Express & Suites Reno Airport, an IHG Hotel",,"lodging, point_of_interest, establishment","2375 Market St, Reno, NV 89502, USA",89502,Reno,Nevada,United States,39.513984,-119.782839
ChIJ07LkRY9AmYARbPPabWOgb1I,Peppermill Resort Spa Casino,,"casino, spa, lodging, restaurant, food, point_of_interest, establishment","2707 S Virginia St, Reno, NV 89502, USA",89502,Reno,Nevada,United States,39.4976865,-119.801139
ChIJxQpVnjo_mYARW9gkVzXSKgY,Nugget Casino Resort,,"casino, lodging, point_of_interest, establishment","1100 Nugget Ave, Sparks, NV 89431, USA",89431,Sparks,Nevada,United States,39.53334069999999,-119.7582759
ChIJ38bZfCc_mYARVaorzvHHMps,Holiday Inn Reno-Sparks,,"lodging, point_of_interest, establishment","55 East Nugget Ave, Sparks, NV 89431, USA",89431,Sparks,Nevada,United States,39.53340499999999,-119.742487
ChIJIQBpAG2ahYAR_6128GcTUEo,San Francisco,,"locality, political","San Francisco, CA, USA",,San Francisco,California,United States,37.7749295,-122.4194155
ChIJU1XNrp-AhYARQSQHOG2Ixww,Edwardian Hotel,,"lodging, point_of_interest, establishment","1668 Market St, San Francisco, CA 94102, USA",94102,San Francisco,California,United States,37.773537,-122.421751
ChIJFwX8xJ-AhYARsKrfcnyXwPI,San Francisco Central Hotel,,"lodging, point_of_interest, establishment","1707 Market St, San Francisco, CA 94103, USA",94103,San Francisco,California,United States,37.7720017,-122.422066
ChIJAQ2zvpiAhYARTcxfopA7klQ,Hayes Valley Inn,,"lodging, point_of_interest, establishment","417 Gough St, San Francisco, CA 94102, USA",94102,San Francisco,California,United States,37.77712580000001,-122.4231924
ChIJ1evvfZuAhYAR-beMvqFfSo4,Hotel Whitcomb,,"lodging, point_of_interest, establishment","1231 Market St, San Francisco, CA 94103, USA",94103,San Francisco,California,United States,37.7781667,-122.4151667
ChIJsY43Vyh-j4ARxE8slGieV2w,Civic Center Motor Inn,,"lodging, point_of_interest, establishment","364 9th St, San Francisco, CA 94103, USA",94103,San Francisco,California,United States,37.7725859,-122.4108229
ChIJkaxkTZeAhYARKUGHC1dMXAI,Embassy Hotel,,"lodging, point_of_interest, establishment","610 Polk St, San Francisco, CA 94102, USA",94102,San Francisco,California,United States,37.7823889,-122.4188905
ChIJ-4Q_xoSAhYARK7VKNJdoKKM,Aida Plaza Hotel,,"lodging, point_of_interest, establishment","1087 Market St, San Francisco, CA 94103, USA",94103,San Francisco,California,United States,37.7804985,-122.4120378
ChIJ70zQuZCAhYARdKqXrH-M97s,Phoenix Hotel,,"lodging, point_of_interest, establishment","601 Eddy St, San Francisco, CA 94109, USA",94109,San Francisco,California,United States,37.78293049999999,-122.4178735
ChIJUyKWdIKAhYARwbu-VpwOBYM,Globe Hotel San Francisco SoMa,,"lodging, point_of_interest, establishment","10 Hallam St, San Francisco, CA 94103, USA",94103,San Francisco,California,United States,37.7756659,-122.40861
ChIJVTPokywQkFQRmtVEaUZlJRA,Seattle,,"locality, political","Seattle, WA, USA",,Seattle,Washington,United States,47.6061389,-122.3328481
ChIJf3uV-rNqkFQRmkmlotz3KN0,Fairmont Olympic Hotel - Seattle,4,"bar, lodging, point_of_interest, establishment","411 University St, Seattle, WA 98101, USA",98101,Seattle,Washington,United States,47.6080126,-122.3338701
ChIJYdpET7FqkFQRG7EKuXswzmg,Executive Hotel Pacific,,"lodging, point_of_interest, establishment","400 Spring St, Seattle, WA 98104, USA",98104,Seattle,Washington,United States,47.6070892,-122.333406
ChIJQXeJQ7FqkFQRwlNZ4OS87bs,Kimpton Hotel Monaco Seattle,3,"lodging, point_of_interest, establishment","1101 4th Ave, Seattle, WA 98101, USA",98101,Seattle,Washington,United States,47.6068879,-122.3341301
ChIJJ6iYtLZqkFQRGEtPwzzHb48,Kimpton Hotel Vintage Seattle,4,"lodging, travel_agency, restaurant, point_of_interest, food, establishment","1100 5th Ave, Seattle, WA 98101, USA",98101,Seattle,Washington,United States,47.607606,-122.3325934
ChIJmZ0LzrZqkFQRvUd2Te2zZOA,Renaissance Seattle Hotel,,"lodging, point_of_interest, establishment","515 Madison St, Seattle, WA 98104, USA",98104,Seattle,Washington,United States,47.6066675,-122.3306848
ChIJAb1AobZqkFQRKKLc9KTrh4c,"Crowne Plaza Seattle-Downtown, an IHG Hotel",4,"lodging, point_of_interest, establishment","1113 6th Ave, Seattle, WA 98101, USA",98101,Seattle,Washington,United States,47.6082077,-122.3321124
ChIJvYvFsLFqkFQRPF48-leg-gc,"Hotel 1000, LXR Hotels & Resorts",,"lodging, point_of_interest, establishment","1000 1st Ave, Seattle, WA 98104, USA",98104,Seattle,Washington,United States,47.60505329999999,-122.3361194
ChIJcRowyrFqkFQRB8nWycTD-mE,The Alexis Royal Sonesta Hotel Seattle,4,"lodging, point_of_interest, establishment","1007 1st Ave, Seattle, WA 98104, USA",98104,Seattle,Washington,United States,47.60480949999999,-122.3368555
ChIJ9dZeFrRqkFQRF14LSyO4FUw,Hilton Seattle,,"lodging, point_of_interest, establishment","1301 6th Ave, Seattle, WA 98101, USA",98101,Seattle,Washington,United States,47.60917399999999,-122.3331396
ChIJVTPokywQkFQRmtVEaUZlJRA,Seattle,,"locality, political","Seattle, WA, USA",,Seattle,Washington,United States,47.6061389,-122.3328481
ChIJf3uV-rNqkFQRmkmlotz3KN0,Fairmont Olympic Hotel - Seattle,4,"lodging, bar, point_of_interest, establishment","411 University St, Seattle, WA 98101, USA",98101,Seattle,Washington,United States,47.6080126,-122.3338701
ChIJYdpET7FqkFQRG7EKuXswzmg,Executive Hotel Pacific,,"lodging, point_of_interest, establishment","400 Spring St, Seattle, WA 98104, USA",98104,Seattle,Washington,United States,47.6070892,-122.333406
ChIJQXeJQ7FqkFQRwlNZ4OS87bs,Kimpton Hotel Monaco Seattle,3,"lodging, point_of_interest, establishment","1101 4th Ave, Seattle, WA 98101, USA",98101,Seattle,Washington,United States,47.6068879,-122.3341301
ChIJJ6iYtLZqkFQRGEtPwzzHb48,Kimpton Hotel Vintage Seattle,4,"travel_agency, lodging, restaurant, food, point_of_interest, establishment","1100 5th Ave, Seattle, WA 98101, USA",98101,Seattle,Washington,United States,47.607606,-122.3325934
ChIJmZ0LzrZqkFQRvUd2Te2zZOA,Renaissance Seattle Hotel,,"lodging, point_of_interest, establishment","515 Madison St, Seattle, WA 98104, USA",98104,Seattle,Washington,United States,47.6066675,-122.3306848
ChIJAb1AobZqkFQRKKLc9KTrh4c,"Crowne Plaza Seattle-Downtown, an IHG Hotel",4,"lodging, point_of_interest, establishment","1113 6th Ave, Seattle, WA 98101, USA",98101,Seattle,Washington,United States,47.6082077,-122.3321124
ChIJvYvFsLFqkFQRPF48-leg-gc,"Hotel 1000, LXR Hotels & Resorts",,"lodging, point_of_interest, establishment","1000 1st Ave, Seattle, WA 98104, USA",98104,Seattle,Washington,United States,47.60505329999999,-122.3361194
ChIJcRowyrFqkFQRB8nWycTD-mE,The Alexis Royal Sonesta Hotel Seattle,4,"lodging, point_of_interest, establishment","1007 1st Ave, Seattle, WA 98104, USA",98104,Seattle,Washington,United States,47.60480949999999,-122.3368555
ChIJ9dZeFrRqkFQRF14LSyO4FUw,Hilton Seattle,,"lodging, point_of_interest, establishment","1301 6th Ave, Seattle, WA 98101, USA",98101,Seattle,Washington,United States,47.60917399999999,-122.3331396
ChIJ9T_5iuTKj4ARe3GfygqMnbk,San Jose,,"locality, political","San Jose, CA, USA",,San Jose,California,United States,37.33874,-121.8852525
ChIJqZitiLrMj4ARGTbRPXeLFgE,The Westin San Jose,,"lodging, point_of_interest, establishment","302 S Market St, San Jose, CA 95113, USA",95113,San Jose,California,United States,37.3309547,-121.8875223
ChIJF4TqnLrMj4ARnszKX0i_6QM,San Jose Marriott,,"lodging, point_of_interest, establishment","301 S Market St, San Jose, CA 95113, USA",95113,San Jose,California,United States,37.3303789,-121.8882895
ChIJVSkbwKPMj4ARVqNJC8J8ftY,Hotel De Anza - Destination by Hyatt,,"lodging, clothing_store, store, point_of_interest, establishment","233 W Santa Clara St, San Jose, CA 95113, USA",95113,San Jose,California,United States,37.3344156,-121.8950487
ChIJdYOsXKXMj4ARThVgcWWybKM,Hyatt Place San Jose/Downtown,,"lodging, point_of_interest, establishment","282 S Almaden Blvd, San Jose, CA 95113, USA",95113,San Jose,California,United States,37.3299726,-121.8910359
ChIJwTUa-q_Mj4ARff4yludGH-M,Hilton San Jose,,"lodging, point_of_interest, establishment","300 S Almaden Ave, San Jose, CA 95110, USA",95110,San Jose,California,United States,37.329303,-121.8905809
ChIJJ0cqYF7Lj4ARTSvJOUW51N0,The Arena Hotel,,"lodging, point_of_interest, establishment","817 The Alameda, San Jose, CA 95126, USA",95126,San Jose,California,United States,37.3320513,-121.9062877
ChIJaYsDJY_Lj4ARtWWXW6qkYNE,Four Points by Sheraton San Jose Airport,,"lodging, point_of_interest, establishment","1471 N 4th St, San Jose, CA 95112, USA",95112,San Jose,California,United States,37.3646957,-121.9082099
ChIJAw7hX7zMj4ARtFk7yvRc7LQ,San Jose Downtown Historic District,,"lodging, point_of_interest, establishment","San Jose, CA 95112, USA",95112,San Jose,California,United States,37.3369684,-121.8881193
ChIJf3Rp6pPLj4ARV_ZqG8IhgSE,Sonesta Select San Jose Airport,,"lodging, point_of_interest, establishment","1727 Technology Dr, San Jose, CA 95110, USA",95110,San Jose,California,United States,37.3651213,-121.9185915
ChIJOwg_06VPwokRYv534QaPC8g,New York,,"locality, political","New York, NY, USA",,New York,New York,United States,40.7127753,-74.0059728
ChIJ7UBKbh9awokRsLNXAfxLoHs,Sonder Duane Street,,"lodging, point_of_interest, establishment","130 Duane St, New York, NY 10013, USA",10013,New York,New York,United States,40.7159471,-74.0073669
ChIJ_1qwJx9awokRl0bFrNhhRBs,Smyth Tribeca,3,"lodging, point_of_interest, establishment","85 W Broadway, New York, NY 10007, USA",10007,New York,New York,United States,40.715222,-74.009045
ChIJYSjtGB9awokRvtwfGw4UEpc,The Frederick Hotel,,"restaurant, lodging, food, bar, point_of_interest, establishment","95 W Broadway, New York, NY 10007, USA",10007,New York,New York,United States,40.7156143,-74.00896709999999
ChIJh-L3uxlawokRDwLmkKwLIvY,Millennium Downtown New York,,"lodging, point_of_interest, establishment","55 Church St, New York, NY 10007, USA",10007,New York,New York,United States,40.71111399999999,-74.010333
ChIJPTJohhdawokR5-M2cwZ2WDo,"Holiday Inn New York City - Wall Street, an IHG Hotel",,"lodging, point_of_interest, establishment","51 Nassau St, New York, NY 10038, USA",10038,New York,New York,United States,40.70897670000001,-74.0091231
ChIJNfKP5xdawokRyCFSWap_ogE,"Gild Hall, A Thompson Hotel, by Hyatt",,"lodging, point_of_interest, establishment","15 Gold St, New York, NY 10038, USA",10038,New York,New York,United States,40.7079177,-74.0072143
ChIJGcnS2CZawokR2T8vG-n1_5k,Hotel Mulberry,,"lodging, point_of_interest, establishment","52 Mulberry St, New York, NY 10013, USA",10013,New York,New York,United States,40.7153105,-73.9994984
ChIJ-ziaVBZawokRj7B7C4qAWPY,Radisson Hotel New York Wall Street,,"lodging, point_of_interest, establishment","52 William St, New York, NY 10005, USA",10005,New York,New York,United States,40.7067619,-74.0089447
ChIJteYXl4pZwokRyx61ICQfyH8,The Roxy Hotel New York,,"lodging, point_of_interest, establishment","2 6th Ave, New York, NY 10013, USA",10013,New York,New York,United States,40.7191799,-74.00491629999999
ChIJOwg_06VPwokRYv534QaPC8g,New York,,"locality, political","New York, NY, USA",,New York,New York,United States,40.7127753,-74.0059728
ChIJ7UBKbh9awokRsLNXAfxLoHs,Sonder Duane Street,,"lodging, point_of_interest, establishment","130 Duane St, New York, NY 10013, USA",10013,New York,New York,United States,40.7159471,-74.0073669
ChIJ_1qwJx9awokRl0bFrNhhRBs,Smyth Tribeca,3,"lodging, point_of_interest, establishment","85 W Broadway, New York, NY 10007, USA",10007,New York,New York,United States,40.715222,-74.009045
ChIJYSjtGB9awokRvtwfGw4UEpc,The Frederick Hotel,,"lodging, bar, restaurant, point_of_interest, food, establishment","95 W Broadway, New York, NY 10007, USA",10007,New York,New York,United States,40.7156143,-74.00896709999999
ChIJh-L3uxlawokRDwLmkKwLIvY,Millennium Downtown New York,,"lodging, point_of_interest, establishment","55 Church St, New York, NY 10007, USA",10007,New York,New York,United States,40.71111399999999,-74.010333
ChIJPTJohhdawokR5-M2cwZ2WDo,"Holiday Inn New York City - Wall Street, an IHG Hotel",,"lodging, point_of_interest, establishment","51 Nassau St, New York, NY 10038, USA",10038,New York,New York,United States,40.70897670000001,-74.0091231
ChIJNfKP5xdawokRyCFSWap_ogE,"Gild Hall, A Thompson Hotel, by Hyatt",,"lodging, point_of_interest, establishment","15 Gold St, New York, NY 10038, USA",10038,New York,New York,United States,40.7079177,-74.0072143
ChIJGcnS2CZawokR2T8vG-n1_5k,Hotel Mulberry,,"lodging, point_of_interest, establishment","52 Mulberry St, New York, NY 10013, USA",10013,New York,New York,United States,40.7153105,-73.9994984
ChIJ-ziaVBZawokRj7B7C4qAWPY,Radisson Hotel New York Wall Street,,"lodging, point_of_interest, establishment","52 William St, New York, NY 10005, USA",10005,New York,New York,United States,40.7067619,-74.0089447
ChIJteYXl4pZwokRyx61ICQfyH8,The Roxy Hotel New York,,"lodging, point_of_interest, establishment","2 6th Ave, New York, NY 10013, USA",10013,New York,New York,United States,40.7191799,-74.00491629999999
ChIJS5dFe_cZTIYRj2dH9qSb7Lk,Dallas,,"locality, political","Dallas, TX, USA",,Dallas,Texas,United States,32.7766642,-96.79698789999999
ChIJd8ztkRmZToYRoAJhaj3xwfE,Aloft Dallas Downtown,,"lodging, point_of_interest, establishment","1033 Young St, Dallas, TX 75202, USA",75202,Dallas,Texas,United States,32.7771833,-96.801087
ChIJEceT6RiZToYRamCabf48B6k,Magnolia Dallas Downtown,,"lodging, point_of_interest, establishment","1401 Commerce St, Dallas, TX 75201, USA",75201,Dallas,Texas,United States,32.7801591,-96.7991098
ChIJSf4EURiZToYR0KhpmIHWXpQ,The Adolphus,3,"lodging, point_of_interest, establishment","1321 Commerce St, Dallas, TX 75202, USA",75202,Dallas,Texas,United States,32.7798003,-96.80011669999999
ChIJn8aFxxiZToYR1tuZ71sZKeI,The Joule,,"lodging, point_of_interest, establishment","1530 Main St, Dallas, TX 75201, USA",75201,Dallas,Texas,United States,32.7805917,-96.79847219999999
ChIJpRbheR-ZToYRjrfQZ37KI2o,"Hotel Indigo Dallas Downtown, an IHG Hotel",2,"lodging, point_of_interest, establishment","1933 Main St, Dallas, TX 75201, USA",75201,Dallas,Texas,United States,32.7819004,-96.79441159999999
ChIJmczW8xeZToYRLT1AzM0hrrg,"Crowne Plaza Dallas Downtown, an IHG Hotel",,"lodging, point_of_interest, establishment","1015 Elm St, Dallas, TX 75202, USA",75202,Dallas,Texas,United States,32.7808613,-96.8035776
ChIJzZ8OFSOZToYR8E34w1-AprA,Fairmont Dallas,3,"lodging, restaurant, food, point_of_interest, establishment","1717 N Akard St, Dallas, TX 75201, USA",75201,Dallas,Texas,United States,32.7857161,-96.8017967
ChIJtyUklj2ZToYR9vHmTZJmVC0,SpringHill Suites by Marriott Dallas Downtown/West End,,"lodging, point_of_interest, establishment","1907 N Lamar St, Dallas, TX 75202, USA",75202,Dallas,Texas,United States,32.7828731,-96.8065663
ChIJ40wS9hOZToYRjJyhgvj-jZ8,Hyatt Regency Dallas,,"lodging, point_of_interest, establishment","300 Reunion Blvd, Dallas, TX 75207, USA",75207,Dallas,Texas,United States,32.7756262,-96.8095263
ChIJL3JhTpb4jYARIYHtuhG7EaU,Salinas,,"locality, political","Salinas, CA, USA",,Salinas,California,United States,36.6777372,-121.6555013
ChIJk1lu1vfkjYAR2MS0Snrrx3E,Embassy Suites by Hilton Monterey Bay Seaside,,"lodging, point_of_interest, establishment","1441 Canyon Del Rey Blvd, Seaside, CA 93955, USA",93955,Seaside,California,United States,36.606795,-121.8563886
ChIJn26RUljkjYARbD5EQWo_NnI,"Holiday Inn Express at Monterey Bay, an IHG Hotel",,"lodging, point_of_interest, establishment","1400 Del Monte Blvd, Seaside, CA 93955, USA",93955,Seaside,California,United States,36.6060894,-121.8570709
ChIJiY3WuCPkjYARzcKpuYuDbY0,Hyatt Regency Monterey Hotel And Spa On Del Monte Golf Course,,"lodging, point_of_interest, establishment","1 Old Golf Course Rd, Monterey, CA 93940, USA",93940,Monterey,California,United States,36.5917396,-121.8771667
ChIJ-63VoznkjYARAVVo0ftkBic,Monterey Bay Lodge,,"lodging, point_of_interest, establishment","55 Camino Aguajito, Monterey, CA 93940, USA",93940,Monterey,California,United States,36.599096,-121.883132
ChIJlTnrLDTkjYARjr7D437CMWc,Hilton Garden Inn Monterey,,"lodging, point_of_interest, establishment","1000 Aguajito Rd, Monterey, CA 93940, USA",93940,Monterey,California,United States,36.5912356,-121.8822862
ChIJe1c9RiLkjYARNySCU9qvWVY,Portola Hotel & Spa at Monterey Bay,,"lodging, point_of_interest, establishment","Two Portola Plaza, Monterey, CA 93940, USA",93940,Monterey,California,United States,36.6016058,-121.8943043
ChIJMWFTXiXkjYAR14BBv4AWU24,Hotel Abrego,,"lodging, restaurant, point_of_interest, food, establishment","755 Abrego St, Monterey, CA 93940, USA",93940,Monterey,California,United States,36.5948548,-121.8919284
ChIJ2VZToxzkjYARve8tnY5C3WE,Monterey Bay Inn,,"lodging, point_of_interest, establishment","242 Cannery Row, Monterey, CA 93940, USA",93940,Monterey,California,United States,36.6111183,-121.8969573
ChIJzXZaoiXkjYARVmFwGbf7WaU,Casa Munras Garden Hotel & Spa,,"spa, lodging, point_of_interest, establishment","700 Munras Ave, Monterey, CA 93940, USA",93940,Monterey,California,United States,36.595442,-121.8932357
ChIJSx6SrQ9T2YARed8V_f0hOg0,San Diego,,"locality, political","San Diego, CA, USA",,San Diego,California,United States,32.715738,-117.1610838
ChIJC0ZfMUVT2YAR15-g5m_LadY,Hilton San Diego Bayfront,,"lodging, point_of_interest, establishment","1 Park Blvd, San Diego, CA 92101, USA",92101,San Diego,California,United States,32.70400879999999,-117.1576613
ChIJrRRF3qdU2YAR7QqXnjQvPcI,"THE US GRANT, a Luxury Collection Hotel, San Diego",,"lodging, point_of_interest, establishment","326 Broadway, San Diego, CA 92101, USA",92101,San Diego,California,United States,32.716204,-117.1615507
ChIJx10ecKhU2YARqHRRoTrNUQo,The Westgate Hotel,,"lodging, point_of_interest, establishment","1055 2nd Ave, San Diego, CA 92101, USA",92101,San Diego,California,United States,32.7162931,-117.1624272
ChIJFYKLdVhT2YARKsGnZlE1TOk,Club Wyndham Harbour Lights,,"lodging, point_of_interest, establishment","911 Fifth Ave, San Diego, CA 92101, USA",92101,San Diego,California,United States,32.7150115,-117.1598357
ChIJYSnfcFhT2YARuMkmvJMyCDc,Gaslamp Plaza Suites,,"lodging, point_of_interest, establishment","520 E St, San Diego, CA 92101, USA",92101,San Diego,California,United States,32.7148706,-117.1597607
ChIJZU5PkKdU2YARNd4CMbfRaok,Courtyard by Marriott San Diego Downtown,,"lodging, point_of_interest, establishment","530 Broadway, San Diego, CA 92101, USA",92101,San Diego,California,United States,32.7158738,-117.1594012
ChIJcZpQGahU2YARuci3H_Y1U_8,The Westin San Diego Gaslamp Quarter,,"lodging, point_of_interest, establishment","910 Broadway Cir, San Diego, CA 92101, USA",92101,San Diego,California,United States,32.71458139999999,-117.1631935
ChIJZ3MAFVhT2YARA6VEyoK26bc,The Keating Hotel San Diego,,"lodging, point_of_interest, establishment","432 F St, San Diego, CA 92101, USA",92101,San Diego,California,United States,32.71373700000001,-117.160327
ChIJo1SiW6hU2YARJYkDYqQSXpY,The Bristol Hotel - San Diego,,"lodging, point_of_interest, establishment","1055 1st Ave., San Diego, CA 92101, USA",92101,San Diego,California,United States,32.716366,-117.1636272
ChIJ01EBI_GCT4YREKrR1gNL1_s,Waco,,"locality, political","Waco, TX, USA",,Waco,Texas,United States,31.549333,-97.1466695
ChIJU0i0UGqBT4YRTGF33tpUlsA,Hampton Inn & Suites Waco-South,,"lodging, point_of_interest, establishment","2501 Marketplace Dr, Waco, TX 76711, USA",76711,Waco,Texas,United States,31.5000613,-97.1553818
ChIJtTmIq7CCT4YRCzRhofM1MAw,Hampton Inn Waco,,"lodging, point_of_interest, establishment","4259 I-35, Waco, TX 76705, USA",76705,Waco,Texas,United States,31.6019928,-97.1089105
ChIJaeVBgKSGT4YRPeHWqVIKZbg,Best Western Plus Woodway Waco South Inn & Suites,,"lodging, point_of_interest, establishment","6808 Woodway Dr, Woodway, TX 76712, USA",76712,Woodway,Texas,United States,31.5084423,-97.194698
ChIJTcJSVd-AT4YRCAQwvSg1PH4,Fairfield Inn & Suites by Marriott Waco North,,"lodging, point_of_interest, establishment","4257 I 35 N Frontage Rd, Waco, TX 76705, USA",76705,Waco,Texas,United States,31.6013351,-97.1093171
ChIJQZWjqlaCT4YRDur1elG3tTU,Courtyard by Marriott Waco,,"lodging, point_of_interest, establishment","101 Washington Ave, Waco, TX 76701, USA",76701,Waco,Texas,United States,31.56064649999999,-97.13016449999999
ChIJZ28Sf5ISAogRUGvRR-Ep0QA,"Homewood Suites by Hilton Waco, Texas",,"lodging, point_of_interest, establishment","5620 Legend Lake Pkwy, Waco, TX 76712, USA",76712,Waco,Texas,United States,31.4930435,-97.1602625
ChIJNRNx_LGCT4YRp2kqUQbFT4Q,"Holiday Inn & Suites Waco Northwest, an IHG Hotel",,"lodging, point_of_interest, establishment","1801 N Development Blvd, Waco, TX 76705, USA",76705,Waco,Texas,United States,31.60610499999999,-97.10166699999999
ChIJYePuK8yAT4YRhDLmN9ApRMU,Ramada by Wyndham South Waco,,"lodging, point_of_interest, establishment","778 Sun Valley Blvd, Hewitt, TX 76643, USA",76643,Hewitt,Texas,United States,31.4588908,-97.17510539999999
ChIJhYnHIFGCT4YRge7TggoD79c,Hilton Waco,,"lodging, point_of_interest, establishment","113 S University Parks Dr, Waco, TX 76701, USA",76701,Waco,Texas,United States,31.5596759,-97.1284847
ChIJ01EBI_GCT4YREKrR1gNL1_s,Waco,,"locality, political","Waco, TX, USA",,Waco,Texas,United States,31.549333,-97.1466695
ChIJU0i0UGqBT4YRTGF33tpUlsA,Hampton Inn & Suites Waco-South,,"lodging, point_of_interest, establishment","2501 Marketplace Dr, Waco, TX 76711, USA",76711,Waco,Texas,United States,31.5000613,-97.1553818
ChIJtTmIq7CCT4YRCzRhofM1MAw,Hampton Inn Waco,,"lodging, point_of_interest, establishment","4259 I-35, Waco, TX 76705, USA",76705,Waco,Texas,United States,31.6019928,-97.1089105
ChIJaeVBgKSGT4YRPeHWqVIKZbg,Best Western Plus Woodway Waco South Inn & Suites,,"lodging, point_of_interest, establishment","6808 Woodway Dr, Woodway, TX 76712, USA",76712,Woodway,Texas,United States,31.5084423,-97.194698
ChIJTcJSVd-AT4YRCAQwvSg1PH4,Fairfield Inn & Suites by Marriott Waco North,,"lodging, point_of_interest, establishment","4257 I 35 N Frontage Rd, Waco, TX 76705, USA",76705,Waco,Texas,United States,31.6013351,-97.1093171
ChIJQZWjqlaCT4YRDur1elG3tTU,Courtyard by Marriott Waco,,"lodging, point_of_interest, establishment","101 Washington Ave, Waco, TX 76701, USA",76701,Waco,Texas,United States,31.56064649999999,-97.13016449999999
ChIJZ28Sf5ISAogRUGvRR-Ep0QA,"Homewood Suites by Hilton Waco, Texas",,"lodging, point_of_interest, establishment","5620 Legend Lake Pkwy, Waco, TX 76712, USA",76712,Waco,Texas,United States,31.4930435,-97.1602625
ChIJNRNx_LGCT4YRp2kqUQbFT4Q,"Holiday Inn & Suites Waco Northwest, an IHG Hotel",,"lodging, point_of_interest, establishment","1801 N Development Blvd, Waco, TX 76705, USA",76705,Waco,Texas,United States,31.60610499999999,-97.10166699999999
ChIJYePuK8yAT4YRhDLmN9ApRMU,Ramada by Wyndham South Waco,,"lodging, point_of_interest, establishment","778 Sun Valley Blvd, Hewitt, TX 76643, USA",76643,Hewitt,Texas,United States,31.4588908,-97.17510539999999
ChIJhYnHIFGCT4YRge7TggoD79c,Hilton Waco,,"lodging, point_of_interest, establishment","113 S University Parks Dr, Waco, TX 76701, USA",76701,Waco,Texas,United States,31.5596759,-97.1284847
ChIJS5dFe_cZTIYRj2dH9qSb7Lk,Dallas,,"locality, political","Dallas, TX, USA",,Dallas,Texas,United States,32.7766642,-96.79698789999999
ChIJd8ztkRmZToYRoAJhaj3xwfE,Aloft Dallas Downtown,,"lodging, point_of_interest, establishment","1033 Young St, Dallas, TX 75202, USA",75202,Dallas,Texas,United States,32.7771833,-96.801087
ChIJEceT6RiZToYRamCabf48B6k,Magnolia Dallas Downtown,,"lodging, point_of_interest, establishment","1401 Commerce St, Dallas, TX 75201, USA",75201,Dallas,Texas,United States,32.7801591,-96.7991098
ChIJSf4EURiZToYR0KhpmIHWXpQ,The Adolphus,3,"lodging, point_of_interest, establishment","1321 Commerce St, Dallas, TX 75202, USA",75202,Dallas,Texas,United States,32.7798003,-96.80011669999999
ChIJn8aFxxiZToYR1tuZ71sZKeI,The Joule,,"lodging, point_of_interest, establishment","1530 Main St, Dallas, TX 75201, USA",75201,Dallas,Texas,United States,32.7805917,-96.79847219999999
ChIJpRbheR-ZToYRjrfQZ37KI2o,"Hotel Indigo Dallas Downtown, an IHG Hotel",2,"lodging, point_of_interest, establishment","1933 Main St, Dallas, TX 75201, USA",75201,Dallas,Texas,United States,32.7819004,-96.79441159999999
ChIJmczW8xeZToYRLT1AzM0hrrg,"Crowne Plaza Dallas Downtown, an IHG Hotel",,"lodging, point_of_interest, establishment","1015 Elm St, Dallas, TX 75202, USA",75202,Dallas,Texas,United States,32.7808613,-96.8035776
ChIJzZ8OFSOZToYR8E34w1-AprA,Fairmont Dallas,3,"lodging, restaurant, point_of_interest, food, establishment","1717 N Akard St, Dallas, TX 75201, USA",75201,Dallas,Texas,United States,32.7857161,-96.8017967
ChIJtyUklj2ZToYR9vHmTZJmVC0,SpringHill Suites by Marriott Dallas Downtown/West End,,"lodging, point_of_interest, establishment","1907 N Lamar St, Dallas, TX 75202, USA",75202,Dallas,Texas,United States,32.7828731,-96.8065663
ChIJ40wS9hOZToYRjJyhgvj-jZ8,Hyatt Regency Dallas,,"lodging, point_of_interest, establishment","300 Reunion Blvd, Dallas, TX 75207, USA",75207,Dallas,Texas,United States,32.7756262,-96.8095263
ChIJJ3SpfQsLlVQRkYXR9ua5Nhw,Portland,,"locality, political","Portland, OR, USA",,Portland,Oregon,United States,45.515232,-122.6783853
ChIJO-HvFgUKlVQRkpjrmSEZBkg,Hilton Portland Downtown,,"lodging, point_of_interest, establishment","921 SW 6th Ave, Portland, OR 97204, USA",97204,Portland,Oregon,United States,45.5173584,-122.6797302
ChIJNzz0yRoKlVQR1EcreSKL0cw,Heathman Hotel,,"lodging, point_of_interest, establishment","1001 SW Broadway, Portland, OR 97205, USA",97205,Portland,Oregon,United States,45.5172107,-122.6809816
ChIJX0vn-REKlVQR0wA6xDYfWrM,Portland Marriott Downtown Waterfront,,"lodging, point_of_interest, establishment","1401 SW Naito Pkwy, Portland, OR 97201, USA",97201,Portland,Oregon,United States,45.5123849,-122.6759331
ChIJOSFp1QQKlVQRtMQw_HeBCRE,The Paramount Hotel Portland,,"night_club, bar, lodging, restaurant, food, point_of_interest, establishment","808 SW Taylor St, Portland, OR 97205, USA",97205,Portland,Oregon,United States,45.51816039999999,-122.6816695
ChIJVZDfqQUKlVQRwBzGTWO9nDA,"The Nines, a Luxury Collection Hotel, Portland",,"lodging, point_of_interest, establishment","525 SW Morrison St, Portland, OR 97204, USA",97204,Portland,Oregon,United States,45.518943,-122.6777971
ChIJxyjBQw8KlVQRPFFLtF_gKgM,Hotel Rose - A Staypineapple Hotel,,"lodging, point_of_interest, establishment","50 SW Morrison St, Portland, OR 97204, USA",97204,Portland,Oregon,United States,45.5173366,-122.6733739
ChIJ4aWqNwQKlVQRnJSxHvnRHig,The Royal Sonesta Portland Downtown,,"lodging, point_of_interest, establishment","506 SW Washington St, Portland, OR 97204, USA",97204,Portland,Oregon,United States,45.52010190000001,-122.6772547
ChIJiWLkchIKlVQRgykot-YqD2Q,Kimpton RiverPlace Hotel,,"lodging, point_of_interest, establishment","1510 S Harbor Way, Portland, OR 97201, USA",97201,Portland,Oregon,United States,45.5111111,-122.6741667
ChIJuwZ-XQQKlVQRjel4Uo2gRJs,The Bidwell Marriott Portland,,"lodging, point_of_interest, establishment","520 SW Broadway, Portland, OR 97205, USA",97205,Portland,Oregon,United States,45.5203684,-122.6787163
ChIJ-ZeDsnLGmoAR238ZdKpqH5I,Sacramento,,"locality, political","Sacramento, CA, USA",,Sacramento,California,United States,38.5815719,-121.4943996
ChIJz2OBV1XGmoAR8QvqDT_bBN8,"Holiday Inn Express & Suites Elk Grove Central - Hwy 99, an IHG Hotel",,"lodging, point_of_interest, establishment","9175 W Stockton Blvd, Elk Grove, CA 95758, USA",95758,Elk Grove,California,United States,38.4240827,-121.3987067
ChIJ3d8jcwDHmoAR5jvwcQhFsLk,Hilton Garden Inn Sacramento Elk Grove,,"lodging, point_of_interest, establishment","9241 Laguna Springs Dr, Elk Grove, CA 95758, USA",95758,Elk Grove,California,United States,38.422895,-121.3976821
ChIJD3CQZXnGmoARefBabWd9NDs,Fairfield Inn & Suites by Marriott Sacramento Elk Grove,,"lodging, point_of_interest, establishment","8058 Orchard Loop Ln, Elk Grove, CA 95624, USA",95624,Elk Grove,California,United States,38.4552377,-121.4081651
ChIJwVYpxL_FmoAR-2mcY8tNF5U,Oasis Inn Sacramento- Elk Grove,,"lodging, point_of_interest, establishment","18 Massie Ct, Sacramento, CA 95823, USA",95823,Sacramento,California,United States,38.47535579999999,-121.4216821
ChIJ5987Cv_GmoAR0d8M9sfn_9E,Best Buy,2,"electronics_store, point_of_interest, home_goods_store, store, establishment","9131 W Stockton Blvd, Elk Grove, CA 95758, USA",95758,Elk Grove,California,United States,38.425877,-121.39796
ChIJRSP9FU_GmoARTL4xF1IdKVI,Target,2,"department_store, shoe_store, electronics_store, clothing_store, furniture_store, home_goods_store, store, point_of_interest, establishment","7505 Laguna Blvd, Elk Grove, CA 95758, USA",95758,Elk Grove,California,United States,38.4263455,-121.4151756
ChIJxeI--HbHmoARBG6mKnMXnSw,Cosumnes Oaks High School,,"secondary_school, school, point_of_interest, establishment","8350 Lotz Pkwy, Elk Grove, CA 95757, USA",95757,Elk Grove,California,United States,38.3988363,-121.3958003
ChIJH8DL_nvGmoARk-fd71L14VQ,Texas Roadhouse,2,"restaurant, point_of_interest, food, establishment","8094 Orchard Loop Ln, Elk Grove, CA 95624, USA",95624,Elk Grove,California,United States,38.4542464,-121.4082166
ChIJjdmsUIjGmoARtJrfU_-P3bA,Monterey Trail High School,,"secondary_school, primary_school, school, point_of_interest, establishment","8661 Power Inn Rd, Elk Grove, CA 95624, USA",95624,Elk Grove,California,United States,38.4493951,-121.3983059
ChIJ-ZeDsnLGmoAR238ZdKpqH5I,Sacramento,,"locality, political","Sacramento, CA, USA",,Sacramento,California,United States,38.5815719,-121.4943996
ChIJmaM5c3IphYARwob0A7mIwgs,University Park Inn and Suites,,"lodging, point_of_interest, establishment","1111 Richards Blvd, Davis, CA 95616, USA",95616,Davis,California,United States,38.5401306,-121.7384643
ChIJF4FhG3AphYARGrVILrTK5I8,La Quinta Inn & Suites by Wyndham Davis,,"lodging, point_of_interest, establishment","1771 Research Park Dr, Davis, CA 95618, USA",95618,Davis,California,United States,38.542192,-121.7318185
ChIJYUMuVAsphYARZiV06ipwIHg,Econo Lodge,,"lodging, point_of_interest, establishment","221 D St, Davis, CA 95616, USA",95616,Davis,California,United States,38.543693,-121.742885
ChIJPYccvlDRhIAR95g8gRLrzUg,Hampton Inn & Suites Woodland-Sacramento Area,,"lodging, point_of_interest, establishment","2060 Freeway Dr, Woodland, CA 95776, USA",95776,Woodland,California,United States,38.6750112,-121.7265978
ChIJU212vFDRhIARIFc_DOHsMpg,"Holiday Inn Express Woodland, an IHG Hotel",,"lodging, point_of_interest, establishment","2070 Freeway Dr, Woodland, CA 95776, USA",95776,Woodland,California,United States,38.6748171,-121.7259551
ChIJlzD4JrklhYARlncjXJ4ymJA,Best Western Plus Dixon Davis,,"lodging, point_of_interest, establishment","1345 Commercial Way, Dixon, CA 95620, USA",95620,Dixon,California,United States,38.4597239,-121.8401502
ChIJP_qJdH_T6oARNIN-CCS7v-w,"University of California, Davis",,"university, point_of_interest, establishment","1 Shields Ave, Davis, CA 95616, USA",95616,Davis,California,United States,38.5382322,-121.7617125
ChIJ5_3bcjnUmoARTzVGBigdKx4,Hampton Inn & Suites West Sacramento,,"lodging, point_of_interest, establishment","800 Stillwater Rd, West Sacramento, CA 95605, USA",95605,West Sacramento,California,United States,38.5908098,-121.5572405
ChIJ1RF2jwwphYAR4wmQ1tcAJEc,Best Western University Lodge,,"lodging, point_of_interest, establishment","123 B St, Davis, CA 95616, USA",95616,Davis,California,United States,38.5421678,-121.7447376
ChIJL3JhTpb4jYARIYHtuhG7EaU,Salinas,,"locality, political","Salinas, CA, USA",,Salinas,California,United States,36.6777372,-121.6555013
ChIJzZbuviPkjYAR0EwNtZ_pMNQ,The Monterey Hotel,,"lodging, point_of_interest, establishment","407 Calle Principal, Monterey, CA 93940, USA",93940,Monterey,California,United States,36.5998486,-121.8950037
ChIJzSZqMSLkjYARhre89y2eTco,Monterey Marriott,,"lodging, point_of_interest, establishment","350 Calle Principal, Monterey, CA 93940, USA",93940,Monterey,California,United States,36.6005554,-121.8951797
ChIJe1c9RiLkjYARNySCU9qvWVY,Portola Hotel & Spa at Monterey Bay,,"lodging, point_of_interest, establishment","Two Portola Plaza, Monterey, CA 93940, USA",93940,Monterey,California,United States,36.6016058,-121.8943043
ChIJD9E2GyLkjYARTWb72tToCVY,Hotel Pacific,,"lodging, point_of_interest, establishment","300 Pacific St, Monterey, CA 93940, USA",93940,Monterey,California,United States,36.6020706,-121.8956601
ChIJzXZaoiXkjYARVmFwGbf7WaU,Casa Munras Garden Hotel & Spa,,"spa, lodging, point_of_interest, establishment","700 Munras Ave, Monterey, CA 93940, USA",93940,Monterey,California,United States,36.595442,-121.8932357
ChIJ6aGUiybkjYARnocthbWIxp0,Colton Inn,,"lodging, point_of_interest, establishment","707 Pacific St, Monterey, CA 93940, USA",93940,Monterey,California,United States,36.5952311,-121.8972209
ChIJMWFTXiXkjYAR14BBv4AWU24,Hotel Abrego,,"lodging, restaurant, food, point_of_interest, establishment","755 Abrego St, Monterey, CA 93940, USA",93940,Monterey,California,United States,36.5948548,-121.8919284
ChIJ-63VoznkjYARAVVo0ftkBic,Monterey Bay Lodge,,"lodging, point_of_interest, establishment","55 Camino Aguajito, Monterey, CA 93940, USA",93940,Monterey,California,United States,36.599096,-121.883132
ChIJ2VZToxzkjYARve8tnY5C3WE,Monterey Bay Inn,,"lodging, point_of_interest, establishment","242 Cannery Row, Monterey, CA 93940, USA",93940,Monterey,California,United States,36.6111183,-121.8969573
ChIJcbTe-KEKmYARKDjivYJsnPc,Carson City,,"locality, political","Carson City, NV, USA",,Carson City,Nevada,United States,39.1637984,-119.7674034
ChIJXWr3w4KamYARZP7TljsumIE,Bally's Lake Tahoe,,"casino, spa, lodging, point_of_interest, establishment","55 Hwy 50, Stateline, NV 89449, USA",89449,Stateline,Nevada,United States,38.961544,-119.939331
ChIJYb-vw52amYARjw-ZwAMfDY8,Basecamp Tahoe South,,"lodging, point_of_interest, establishment","4143 Cedar Ave, South Lake Tahoe, CA 96150, USA",96150,South Lake Tahoe,California,United States,38.9601871,-119.9445592
ChIJae3o-neQmYARWQ4WjA9fWcY,Harrah's Lake Tahoe,,"lodging, point_of_interest, establishment","15 Hwy 50, Stateline, NV 89449, USA",89449,Stateline,Nevada,United States,38.95950089999999,-119.9413874
ChIJj9K5AZ6amYARL6t97lYEenY,Big Pines Mountain House of Tahoe,,"lodging, point_of_interest, establishment","4083 Cedar Ave, South Lake Tahoe, CA 96150, USA",96150,South Lake Tahoe,California,United States,38.95812399999999,-119.945104
ChIJO6CvD3eQmYARkpLBnenMJcs,Marriott's Timber Lodge,,"lodging, point_of_interest, establishment","4100 Lake Tahoe Blvd, South Lake Tahoe, CA 96150, USA",96150,South Lake Tahoe,California,United States,38.9572308,-119.9424508
ChIJL-x5M3SQmYARPWT4N3J3its,Hotel Becket South Lake Tahoe,,"lodging, point_of_interest, establishment","4003 Lake Tahoe Blvd, South Lake Tahoe, CA 96150, USA",96150,South Lake Tahoe,California,United States,38.955345,-119.9459115
ChIJD14UEHSQmYARx71AKR48xhg,"Holiday Inn Express South Lake Tahoe, an IHG Hotel",,"lodging, point_of_interest, establishment","3961 Lake Tahoe Blvd, South Lake Tahoe, CA 96150, USA",96150,South Lake Tahoe,California,United States,38.9540047,-119.946439
ChIJMxPTMwSQmYARXwC0YcMbFJM,Tahoe Lakeshore Lodge & Spa,,"spa, lodging, point_of_interest, establishment","930 Balbijou Rd, South Lake Tahoe, CA 96150, USA",96150,South Lake Tahoe,California,United States,38.94770880000001,-119.9644097
ChIJra8hnEZwmYARkb17p09lRp4,"Hyatt Regency Lake Tahoe Resort, Spa And Casino",,"lodging, point_of_interest, establishment","111 Country Club Dr, Incline Village, NV 89451, USA",89451,Incline Village,Nevada,United States,39.2402366,-119.9431558
ChIJcbTe-KEKmYARKDjivYJsnPc,Carson City,,"locality, political","Carson City, NV, USA",,Carson City,Nevada,United States,39.1637984,-119.7674034
ChIJXWr3w4KamYARZP7TljsumIE,Bally's Lake Tahoe,,"casino, spa, lodging, point_of_interest, establishment","55 Hwy 50, Stateline, NV 89449, USA",89449,Stateline,Nevada,United States,38.961544,-119.939331
ChIJYb-vw52amYARjw-ZwAMfDY8,Basecamp Tahoe South,,"lodging, point_of_interest, establishment","4143 Cedar Ave, South Lake Tahoe, CA 96150, USA",96150,South Lake Tahoe,California,United States,38.9601871,-119.9445592
ChIJae3o-neQmYARWQ4WjA9fWcY,Harrah's Lake Tahoe,,"lodging, point_of_interest, establishment","15 Hwy 50, Stateline, NV 89449, USA",89449,Stateline,Nevada,United States,38.95950089999999,-119.9413874
ChIJj9K5AZ6amYARL6t97lYEenY,Big Pines Mountain House of Tahoe,,"lodging, point_of_interest, establishment","4083 Cedar Ave, South Lake Tahoe, CA 96150, USA",96150,South Lake Tahoe,California,United States,38.95812399999999,-119.945104
ChIJO6CvD3eQmYARkpLBnenMJcs,Marriott's Timber Lodge,,"lodging, point_of_interest, establishment","4100 Lake Tahoe Blvd, South Lake Tahoe, CA 96150, USA",96150,South Lake Tahoe,California,United States,38.9572308,-119.9424508
ChIJL-x5M3SQmYARPWT4N3J3its,Hotel Becket South Lake Tahoe,,"lodging, point_of_interest, establishment","4003 Lake Tahoe Blvd, South Lake Tahoe, CA 96150, USA",96150,South Lake Tahoe,California,United States,38.955345,-119.9459115
ChIJD14UEHSQmYARx71AKR48xhg,"Holiday Inn Express South Lake Tahoe, an IHG Hotel",,"lodging, point_of_interest, establishment","3961 Lake Tahoe Blvd, South Lake Tahoe, CA 96150, USA",96150,South Lake Tahoe,California,United States,38.9540047,-119.946439
ChIJMxPTMwSQmYARXwC0YcMbFJM,Tahoe Lakeshore Lodge & Spa,,"lodging, spa, point_of_interest, establishment","930 Balbijou Rd, South Lake Tahoe, CA 96150, USA",96150,South Lake Tahoe,California,United States,38.94770880000001,-119.9644097
ChIJra8hnEZwmYARkb17p09lRp4,"Hyatt Regency Lake Tahoe Resort, Spa And Casino",,"lodging, point_of_interest, establishment","111 Country Club Dr, Incline Village, NV 89451, USA",89451,Incline Village,Nevada,United States,39.2402366,-119.9431558
ChIJs-Xb_9Qa24ARfHntwodp5aE,Palm Springs,,"locality, political","Palm Springs, CA, USA",,Palm Springs,California,United States,33.8302961,-116.5452921
ChIJJ215lbLi2oARrLM5uiuOSp4,Agua Caliente Resort Casino Spa Rancho Mirage,,"tourist_attraction, casino, spa, lodging, point_of_interest, establishment","32-250 Bob Hope Dr, Rancho Mirage, CA 92270, USA",92270,Rancho Mirage,California,United States,33.813915,-116.4093283
ChIJxzyvvap20IARS6--iWFXgoM,"Holiday Inn Express & Suites Twentynine Palms- Joshua Tree, an IHG Hotel",,"lodging, point_of_interest, establishment","72535 29 Palms Hwy, Twentynine Palms, CA 92277, USA",92277,Twentynine Palms,California,United States,34.1350123,-116.0797781
ChIJR2_7LkUd24AR5AlQQ2guJRE,The Westin Rancho Mirage Golf Resort & Spa,,"lodging, point_of_interest, establishment","71333 Dinah Shore Dr, Rancho Mirage, CA 92270, USA",92270,Rancho Mirage,California,United States,33.8000518,-116.417266
ChIJHVbIwdob24AR7SHDtLAGNcY,Days Inn by Wyndham Palm Springs,,"lodging, point_of_interest, establishment","1983 N Palm Canyon Dr, Palm Springs, CA 92262, USA",92262,Palm Springs,California,United States,33.8475294,-116.5478534
ChIJ2fL2XZIh24ARQRqejkfAA1E,sea mountain lifestyle resorts and clothing optional spas,,"spa, night_club, lodging, point_of_interest, establishment","66540 San Marcus Rd, Desert Hot Springs, CA 92240, USA",92240,Desert Hot Springs,California,United States,33.974522,-116.500265
ChIJv2OPiBD92oAR7XBZ7G33630,Marriott's Shadow Ridge I-The Villages,,"lodging, point_of_interest, establishment","9003 Shadow Ridge Rd, Palm Desert, CA 92211, USA",92211,Palm Desert,California,United States,33.78302699999999,-116.384585
ChIJY4ifApIh24ARd8UppFAjTng,Miracle Springs Resort & Spa,,"spa, lodging, point_of_interest, establishment","10625 Palm Dr, Desert Hot Springs, CA 92240, USA",92240,Desert Hot Springs,California,United States,33.97165,-116.5020472
ChIJ0XumdO8n24ARn6OrYueTTxE,Americas Best Value Inn & Suites Joshua Tree National Park,,"lodging, point_of_interest, establishment","56377 29 Palms Hwy, Yucca Valley, CA 92284, USA",92284,Yucca Valley,California,United States,34.11990900000001,-116.4345135
ChIJGWMCYrkb24AR6v_wgdM8iJ4,The Colony Palms Hotel and Bungalows,,"lodging, point_of_interest, establishment","572 N Indian Canyon Dr, Palm Springs, CA 92262, USA",92262,Palm Springs,California,United States,33.8312887,-116.5450461
ChIJs-Xb_9Qa24ARfHntwodp5aE,Palm Springs,,"locality, political","Palm Springs, CA, USA",,Palm Springs,California,United States,33.8302961,-116.5452921
ChIJJ215lbLi2oARrLM5uiuOSp4,Agua Caliente Resort Casino Spa Rancho Mirage,,"tourist_attraction, casino, spa, lodging, point_of_interest, establishment","32-250 Bob Hope Dr, Rancho Mirage, CA 92270, USA",92270,Rancho Mirage,California,United States,33.813915,-116.4093283
ChIJxzyvvap20IARS6--iWFXgoM,"Holiday Inn Express & Suites Twentynine Palms- Joshua Tree, an IHG Hotel",,"lodging, point_of_interest, establishment","72535 29 Palms Hwy, Twentynine Palms, CA 92277, USA",92277,Twentynine Palms,California,United States,34.1350123,-116.0797781
ChIJR2_7LkUd24AR5AlQQ2guJRE,The Westin Rancho Mirage Golf Resort & Spa,,"lodging, point_of_interest, establishment","71333 Dinah Shore Dr, Rancho Mirage, CA 92270, USA",92270,Rancho Mirage,California,United States,33.8000518,-116.417266
ChIJHVbIwdob24AR7SHDtLAGNcY,Days Inn by Wyndham Palm Springs,,"lodging, point_of_interest, establishment","1983 N Palm Canyon Dr, Palm Springs, CA 92262, USA",92262,Palm Springs,California,United States,33.8475294,-116.5478534
ChIJ2fL2XZIh24ARQRqejkfAA1E,sea mountain lifestyle resorts and clothing optional spas,,"spa, night_club, lodging, point_of_interest, establishment","66540 San Marcus Rd, Desert Hot Springs, CA 92240, USA",92240,Desert Hot Springs,California,United States,33.974522,-116.500265
ChIJv2OPiBD92oAR7XBZ7G33630,Marriott's Shadow Ridge I-The Villages,,"lodging, point_of_interest, establishment","9003 Shadow Ridge Rd, Palm Desert, CA 92211, USA",92211,Palm Desert,California,United States,33.78302699999999,-116.384585
ChIJY4ifApIh24ARd8UppFAjTng,Miracle Springs Resort & Spa,,"spa, lodging, point_of_interest, establishment","10625 Palm Dr, Desert Hot Springs, CA 92240, USA",92240,Desert Hot Springs,California,United States,33.97165,-116.5020472
ChIJ0XumdO8n24ARn6OrYueTTxE,Americas Best Value Inn & Suites Joshua Tree National Park,,"lodging, point_of_interest, establishment","56377 29 Palms Hwy, Yucca Valley, CA 92284, USA",92284,Yucca Valley,California,United States,34.11990900000001,-116.4345135
ChIJGWMCYrkb24AR6v_wgdM8iJ4,The Colony Palms Hotel and Bungalows,,"lodging, point_of_interest, establishment","572 N Indian Canyon Dr, Palm Springs, CA 92262, USA",92262,Palm Springs,California,United States,33.8312887,-116.5450461
ChIJnaCSkq5AmYARh_c4dM7FxUA,Reno,,"locality, political","Reno, NV, USA",,Reno,Nevada,United States,39.529919,-119.8142691
ChIJRYQdLTRHmYARu8Op-jB28TE,Silver Legacy Resort Casino,,"casino, lodging, point_of_interest, establishment","407 N Virginia St, Reno, NV 89501, USA",89501,Reno,Nevada,United States,39.5304918,-119.8149946
ChIJ080StzVHmYARD-YbD1sKARw,Eldorado Reno Resort Casino,,"lodging, point_of_interest, establishment","345 N Virginia St, Reno, NV 89501, USA",89501,Reno,Nevada,United States,39.5291595,-119.8146488
ChIJ8ZZtmjZHmYARPmy0CY53NYo,Circus Circus Reno,,"lodging, point_of_interest, establishment","500 N Sierra St, Reno, NV 89503, USA",89503,Reno,Nevada,United States,39.5313968,-119.8156128
ChIJBzXVmTNHmYAR6ipRaf8zVCE,J Resort,,"casino, lodging, point_of_interest, establishment","345 N Arlington Ave, Reno, NV 89501, USA",89501,Reno,Nevada,United States,39.5281442,-119.8188873
ChIJG7qnuls_mYARweP739kMgh8,Grand Sierra Resort and Casino,,"casino, night_club, movie_theater, lodging, bar, restaurant, food, point_of_interest, establishment","2500 E 2nd St, Reno, NV 89595, USA",89595,Reno,Nevada,United States,39.5230411,-119.7812235
ChIJX8m41WY_mYAR7oBrdT7oP9M,"Holiday Inn Express & Suites Reno Airport, an IHG Hotel",,"lodging, point_of_interest, establishment","2375 Market St, Reno, NV 89502, USA",89502,Reno,Nevada,United States,39.513984,-119.782839
ChIJ07LkRY9AmYARbPPabWOgb1I,Peppermill Resort Spa Casino,,"casino, spa, lodging, restaurant, food, point_of_interest, establishment","2707 S Virginia St, Reno, NV 89502, USA",89502,Reno,Nevada,United States,39.4976865,-119.801139
ChIJxQpVnjo_mYARW9gkVzXSKgY,Nugget Casino Resort,,"casino, lodging, point_of_interest, establishment","1100 Nugget Ave, Sparks, NV 89431, USA",89431,Sparks,Nevada,United States,39.53334069999999,-119.7582759
ChIJ38bZfCc_mYARVaorzvHHMps,Holiday Inn Reno-Sparks,,"lodging, point_of_interest, establishment","55 East Nugget Ave, Sparks, NV 89431, USA",89431,Sparks,Nevada,United States,39.53340499999999,-119.742487
ChIJnaCSkq5AmYARh_c4dM7FxUA,Reno,,"locality, political","Reno, NV, USA",,Reno,Nevada,United States,39.529919,-119.8142691
ChIJRYQdLTRHmYARu8Op-jB28TE,Silver Legacy Resort Casino,,"casino, lodging, point_of_interest, establishment","407 N Virginia St, Reno, NV 89501, USA",89501,Reno,Nevada,United States,39.5304918,-119.8149946
ChIJ080StzVHmYARD-YbD1sKARw,Eldorado Reno Resort Casino,,"lodging, point_of_interest, establishment","345 N Virginia St, Reno, NV 89501, USA",89501,Reno,Nevada,United States,39.5291595,-119.8146488
ChIJ8ZZtmjZHmYARPmy0CY53NYo,Circus Circus Reno,,"lodging, point_of_interest, establishment","500 N Sierra St, Reno, NV 89503, USA",89503,Reno,Nevada,United States,39.5313968,-119.8156128
ChIJBzXVmTNHmYAR6ipRaf8zVCE,J Resort,,"casino, lodging, point_of_interest, establishment","345 N Arlington Ave, Reno, NV 89501, USA",89501,Reno,Nevada,United States,39.5281442,-119.8188873
ChIJG7qnuls_mYARweP739kMgh8,Grand Sierra Resort and Casino,,"casino, movie_theater, night_club, lodging, bar, restaurant, food, point_of_interest, establishment","2500 E 2nd St, Reno, NV 89595, USA",89595,Reno,Nevada,United States,39.5230411,-119.7812235
ChIJX8m41WY_mYAR7oBrdT7oP9M,"Holiday Inn Express & Suites Reno Airport, an IHG Hotel",,"lodging, point_of_interest, establishment","2375 Market St, Reno, NV 89502, USA",89502,Reno,Nevada,United States,39.513984,-119.782839
ChIJ07LkRY9AmYARbPPabWOgb1I,Peppermill Resort Spa Casino,,"casino, spa, lodging, restaurant, point_of_interest, food, establishment","2707 S Virginia St, Reno, NV 89502, USA",89502,Reno,Nevada,United States,39.4976865,-119.801139
ChIJxQpVnjo_mYARW9gkVzXSKgY,Nugget Casino Resort,,"casino, lodging, point_of_interest, establishment","1100 Nugget Ave, Sparks, NV 89431, USA",89431,Sparks,Nevada,United States,39.53334069999999,-119.7582759
ChIJ38bZfCc_mYARVaorzvHHMps,Holiday Inn Reno-Sparks,,"lodging, point_of_interest, establishment","55 East Nugget Ave, Sparks, NV 89431, USA",89431,Sparks,Nevada,United States,39.53340499999999,-119.742487
ChIJnaCSkq5AmYARh_c4dM7FxUA,Reno,,"locality, political","Reno, NV, USA",,Reno,Nevada,United States,39.529919,-119.8142691
ChIJRYQdLTRHmYARu8Op-jB28TE,Silver Legacy Resort Casino,,"casino, lodging, point_of_interest, establishment","407 N Virginia St, Reno, NV 89501, USA",89501,Reno,Nevada,United States,39.5304918,-119.8149946
ChIJ080StzVHmYARD-YbD1sKARw,Eldorado Reno Resort Casino,,"lodging, point_of_interest, establishment","345 N Virginia St, Reno, NV 89501, USA",89501,Reno,Nevada,United States,39.5291595,-119.8146488
ChIJ8ZZtmjZHmYARPmy0CY53NYo,Circus Circus Reno,,"lodging, point_of_interest, establishment","500 N Sierra St, Reno, NV 89503, USA",89503,Reno,Nevada,United States,39.5313968,-119.8156128
ChIJBzXVmTNHmYAR6ipRaf8zVCE,J Resort,,"casino, lodging, point_of_interest, establishment","345 N Arlington Ave, Reno, NV 89501, USA",89501,Reno,Nevada,United States,39.5281442,-119.8188873
ChIJG7qnuls_mYARweP739kMgh8,Grand Sierra Resort and Casino,,"movie_theater, casino, night_club, bar, restaurant, food, lodging, point_of_interest, establishment","2500 E 2nd St, Reno, NV 89595, USA",89595,Reno,Nevada,United States,39.5230411,-119.7812235
ChIJX8m41WY_mYAR7oBrdT7oP9M,"Holiday Inn Express & Suites Reno Airport, an IHG Hotel",,"lodging, point_of_interest, establishment","2375 Market St, Reno, NV 89502, USA",89502,Reno,Nevada,United States,39.513984,-119.782839
ChIJ07LkRY9AmYARbPPabWOgb1I,Peppermill Resort Spa Casino,,"casino, spa, lodging, restaurant, food, point_of_interest, establishment","2707 S Virginia St, Reno, NV 89502, USA",89502,Reno,Nevada,United States,39.4976865,-119.801139
ChIJxQpVnjo_mYARW9gkVzXSKgY,Nugget Casino Resort,,"casino, lodging, point_of_interest, establishment","1100 Nugget Ave, Sparks, NV 89431, USA",89431,Sparks,Nevada,United States,39.53334069999999,-119.7582759
ChIJ38bZfCc_mYARVaorzvHHMps,Holiday Inn Reno-Sparks,,"lodging, point_of_interest, establishment","55 East Nugget Ave, Sparks, NV 89431, USA",89431,Sparks,Nevada,United States,39.53340499999999,-119.742487
ChIJnxezeV8MloARbY3uD9fZFPE,Mammoth Lakes,,"locality, political","Mammoth Lakes, CA 93546, USA",93546,Mammoth Lakes,California,United States,37.648546,-118.972079
ChIJn5OYbrANloARETMG748w6vY,"The Westin Monache Resort, Mammoth",,"lodging, point_of_interest, establishment","50 Hillside Dr, Mammoth Lakes, CA 93546, USA",93546,Mammoth Lakes,California,United States,37.6492294,-118.9863187
ChIJK_g2sLoNloAR9DUAr62LyHA,The Village Lodge Mammoth,,"lodging, point_of_interest, establishment","1111 Forest Trail, Mammoth Lakes, CA 93546, USA",93546,Mammoth Lakes,California,United States,37.6513056,-118.9862389
ChIJEd0gSVIMloARACtcOIJaKk0,Juniper Springs Resort,,"real_estate_agency, lodging, point_of_interest, establishment","4000 Meridian Blvd, Mammoth Lakes, CA 93546, USA",93546,Mammoth Lakes,California,United States,37.635516,-118.990168
ChIJgxvuaLsNloARplmsqY87-oM,Mammoth Mountain Inn,,"lodging, point_of_interest, establishment","10400 Minaret Rd, Mammoth Lakes, CA 93546, USA",93546,Mammoth Lakes,California,United States,37.6516887,-119.0388546
ChIJieVRUc0NloARPaaG5jzn9KU,Shilo Inns Suites,,"lodging, point_of_interest, establishment","2963 Main St, Mammoth Lakes, CA 93546, USA",93546,Mammoth Lakes,California,United States,37.6461928,-118.964918
ChIJX3le4zIMloARyx-rT1P3sG0,Outbound Mammoth,,"lodging, restaurant, food, point_of_interest, establishment","164 Old Mammoth Rd, Mammoth Lakes, CA 93546, USA",93546,Mammoth Lakes,California,United States,37.64358910000001,-118.9667338
ChIJhYSTgzVqloAR5Bz31aOqYsw,Double Eagle Resort & Spa,,"spa, lodging, point_of_interest, establishment","5587 CA-158, June Lake, CA 93529, USA",93529,June Lake,California,United States,37.76384299999999,-119.117262
ChIJkU1sZMkNloARyqR89C_U6Tw,"Motel 6 Mammoth Lakes, CA",,"lodging, point_of_interest, establishment","3372 Main St, Mammoth Lakes, CA 93546, USA",93546,Mammoth Lakes,California,United States,37.648967,-118.9725488
ChIJ1QExo6cNloARw4fi0c204KA,Mammoth Ski and Racquet Club Condominiums,,"real_estate_agency, point_of_interest, establishment","248 Mammoth Slopes Dr, Mammoth Lakes, CA 93546, USA",93546,Mammoth Lakes,California,United States,37.6484899,-118.9973378
ChIJ0X31pIK3voARo3mz1ebVzDo,Las Vegas,,"locality, political","Las Vegas, NV, USA",,Las Vegas,Nevada,United States,36.171563,-115.1391009
ChIJP_YNmqHDyIARtqyg5oGF5xw,Plaza Hotel & Casino,,"casino, lodging, point_of_interest, establishment","1 N Main St, Las Vegas, NV 89101, USA",89101,Las Vegas,Nevada,United States,36.171784,-115.146861
ChIJI9tTB6DDyIARBYf7r_X-rdE,Downtown Grand Hotel & Casino,,"casino, lodging, point_of_interest, establishment","206 N 3rd St, Las Vegas, NV 89101, USA",89101,Las Vegas,Nevada,United States,36.1716389,-115.1416128
ChIJFTJhO6DDyIARYs7dJsDxK2Y,Fremont Hotel & Casino,,"casino, point_of_interest, establishment","200 Fremont St, Las Vegas, NV 89101, USA",89101,Las Vegas,Nevada,United States,36.17079539999999,-115.1432647
ChIJv_WQA6HDyIAR_wdTCqIWDZg,California Hotel & Casino,,"casino, point_of_interest, establishment","12 E Ogden Ave, Las Vegas, NV 89101, USA",89101,Las Vegas,Nevada,United States,36.1729812,-115.1448364
ChIJM5pPyaHDyIARi2GWubblECA,Golden Nugget Las Vegas Hotel & Casino,2,"aquarium, casino, bar, lodging, restaurant, food, point_of_interest, establishment","129 E Fremont St, Las Vegas, NV 89101, USA",89101,Las Vegas,Nevada,United States,36.16996710000001,-115.1448235
ChIJi30u1KbDyIARNE76kZcu75w,Main Street Station Casino Brewery Hotel,,"casino, lodging, food, point_of_interest, establishment","200 N Main St, Las Vegas, NV 89101, USA",89101,Las Vegas,Nevada,United States,36.17372690000001,-115.1454445
ChIJP_e37KHDyIAR972mwUmavqE,Golden Gate Hotel & Casino,,"tourist_attraction, casino, lodging, point_of_interest, establishment","1 Fremont St, Las Vegas, NV 89101, USA",89101,Las Vegas,Nevada,United States,36.17119819999999,-115.1462426
ChIJPxI0X4TDyIARkheCu7sXfMw,Bungalows Hostel,,"lodging, point_of_interest, establishment","1236 S Las Vegas Blvd, Las Vegas, NV 89104, USA",89104,Las Vegas,Nevada,United States,36.155914,-115.149792
ChIJ8-0pEYjDyIARB4jQJR4xnxs,"The STRAT Hotel, Casino & Tower",2,"lodging, point_of_interest, establishment","2000 Las Vegas Blvd S, Las Vegas, NV 89104, USA",89104,Las Vegas,Nevada,United States,36.1475119,-115.1565537
ChIJUV989PZTkIARK2M3xDK6lL8,Modesto,,"locality, political","Modesto, CA, USA",,Modesto,California,United States,37.6392595,-120.9970014
ChIJ_8JD5exTkIARkUhm1pUkgh4,DoubleTree by Hilton Hotel Modesto,,"lodging, point_of_interest, establishment","1150 9th St, Modesto, CA 95354, USA",95354,Modesto,California,United States,37.6417301,-121.002812
ChIJ9W-tZvNTkIARh65cboRKZhU,Best Western Town House Lodge,,"lodging, point_of_interest, establishment","909 16th St, Modesto, CA 95354, USA",95354,Modesto,California,United States,37.64387499999999,-120.994138
ChIJsSUb-lVRkIARao4E0r1pVzI,Days Inn by Wyndham Modesto,,"lodging, point_of_interest, establishment","1312 McHenry Ave, Modesto, CA 95350, USA",95350,Modesto,California,United States,37.6622924,-120.9919787
ChIJVcuNAxxQkIARA7ihp42yXlc,Fairfield Inn & Suites by Marriott Modesto Salida,,"lodging, point_of_interest, establishment","4342 Salida Blvd, Salida, CA 95368, USA",95368,Salida,California,United States,37.701832,-121.0746986
ChIJ6aPiVEIHkYARq5qbCBfKFH4,"Holiday Inn Express & Suites Turlock-Hwy 99, an IHG Hotel",,"lodging, point_of_interest, establishment","3001 Hotel Dr, Turlock, CA 95380, USA",95380,Turlock,California,United States,37.523308,-120.882268
ChIJHeVuYhtQkIARKf3lhoQJ34M,"Holiday Inn Express & Suites Modesto-Salida, an IHG Hotel",,"lodging, point_of_interest, establishment","4300 Bangs Ave, Modesto, CA 95356, USA",95356,Modesto,California,United States,37.70398799999999,-121.073629
ChIJKQy4I3FRkIARLLb3zM7NeFo,SpringHill Suites by Marriott Modesto,,"lodging, point_of_interest, establishment","1901 W Orangeburg Ave, Modesto, CA 95350, USA",95350,Modesto,California,United States,37.664617,-121.026577
ChIJP45CeRhQkIARxX52yTmlwL4,Baymont by Wyndham Modesto Salida,,"lodging, point_of_interest, establishment","4100 Salida Blvd, Modesto, CA 95358, USA",95358,Modesto,California,United States,37.69746670000001,-121.070437
ChIJhxPCAQJQkIARDnddMIjFKCc,Hampton Inn & Suites Modesto-Salida,,"lodging, point_of_interest, establishment","4921 Sisk Rd, Salida, CA 95368, USA",95368,Salida,California,United States,37.7089784,-121.0789919
ChIJCQfOMpcRhYARORbGqAI_k5U,Vallejo,,"locality, political","Vallejo, CA, USA",,Vallejo,California,United States,38.1040864,-122.2566367
ChIJ4Y3512QMhYAR7wtUmGq3rEk,DoubleTree by Hilton Napa Valley American Canyon,,"lodging, point_of_interest, establishment","3600 Broadway, American Canyon, CA 94503, USA",94503,American Canyon,California,United States,38.17270099999999,-122.2528983
ChIJr8M1_20MhYARU-eLoB7WRh8,"Holiday Inn Express & Suites Napa Valley-American Canyon, an IHG Hotel",,"lodging, point_of_interest, establishment","5001 Main St, American Canyon, CA 94503, USA",94503,American Canyon,California,United States,38.1797984,-122.2538529
ChIJ8V-H8NEMhYARTtHFwFOhk1M,Courtyard by Marriott Vallejo Napa Valley,,"lodging, point_of_interest, establishment","1000 Fairgrounds Dr, Vallejo, CA 94589, USA",94589,Vallejo,California,United States,38.1398419,-122.2298147
ChIJk62qlK8MhYARge2XIM_O6Rg,Regency Inn Vallejo,,"lodging, point_of_interest, establishment","4326 Sonoma Blvd, Vallejo, CA 94589, USA",94589,Vallejo,California,United States,38.1354585,-122.2558226
ChIJ9ZLoZiVzhYAR1u7hkPt0Sq4,SureStay By Best Western Vallejo Napa Valley,,"lodging, point_of_interest, establishment","300 Fairgrounds Dr, Vallejo, CA 94589, USA",94589,Vallejo,California,United States,38.1250714,-122.2297293
ChIJZXKKhc4MhYAR5O3pJUMuiUk,Six Flags Discovery Kingdom,,"tourist_attraction, amusement_park, point_of_interest, establishment","1001 Fairgrounds Dr, Vallejo, CA 94589, USA",94589,Vallejo,California,United States,38.1376988,-122.2334814
ChIJxbybtqgMhYARY7wmnLrIWo8,"Motel 6 Vallejo, CA - Six Flags West",,"lodging, point_of_interest, establishment","1455 Enterprise St, Vallejo, CA 94589, USA",94589,Vallejo,California,United States,38.13589889999999,-122.2574477
ChIJNd81ecVzhYARJNzTosEp3u4,Cal Maritime,,"university, point_of_interest, establishment","200 Maritime Academy Dr, Vallejo, CA 94590, USA",94590,Vallejo,California,United States,38.06891929999999,-122.2303477
ChIJKanb4W8MhYARISGXoQU5HW8,Fairfield Inn & Suites by Marriott Napa American Canyon,,"lodging, point_of_interest, establishment","3800 Broadway #29, American Canyon, CA 94503, USA",94503,American Canyon,California,United States,38.1755037,-122.2527971
ChIJE9on3F3HwoAR9AhGJW_fL-I,Los Angeles,,"locality, political","Los Angeles, CA, USA",,Los Angeles,California,United States,34.0549076,-118.242643
ChIJk4UcFkzGwoARXX6vn9WOP1Q,Kawada Hotel,,"lodging, point_of_interest, establishment","200 S Hill St, Los Angeles, CA 90012, USA",90012,Los Angeles,California,United States,34.0527968,-118.2477978
ChIJN4KVwkfGwoARd235b3GLiYo,Miyako Hotel Los Angeles,,"lodging, point_of_interest, establishment","328 1st St, Los Angeles, CA 90012, USA",90012,Los Angeles,California,United States,34.0496484,-118.2402017
ChIJ2YN22kTGwoARshYCMmIIuQM,Metro Plaza Hotel,,"lodging, point_of_interest, establishment","711 N Main St, Los Angeles, CA 90012, USA",90012,Los Angeles,California,United States,34.0588338,-118.2376156
ChIJHa52O1rGwoARer87_e2fc1M,Best Western Plus Dragon Gate Inn,,"lodging, point_of_interest, establishment","818 N Hill St, Los Angeles, CA 90012, USA",90012,Los Angeles,California,United States,34.063266,-118.238944
ChIJ8wFsf63HwoARuDYVgplSZ9o,The L.A. Grand Hotel Downtown,3,"lodging, point_of_interest, establishment","333 S Figueroa St, Los Angeles, CA 90071, USA",90071,Los Angeles,California,United States,34.0549049,-118.2555317
ChIJ_X3CRLLHwoARRT04UFlchVE,"The Westin Bonaventure Hotel & Suites, Los Angeles",,"lodging, point_of_interest, establishment","404 S Figueroa St, Los Angeles, CA 90071, USA",90071,Los Angeles,California,United States,34.0527773,-118.255596
ChIJU9oTm7THwoARF9dZF0pdn0U,Hilton Checkers Los Angeles,,"lodging, point_of_interest, establishment","535 S Grand Ave, Los Angeles, CA 90071, USA",90071,Los Angeles,California,United States,34.0496146,-118.2549957
ChIJZ_AkO1nGwoARNy378Aycqnw,The Royal Pagoda Motel - Los Angeles,,"lodging, point_of_interest, establishment","995 N Broadway, Los Angeles, CA 90012, USA",90012,Los Angeles,California,United States,34.066712,-118.236335
ChIJ-_RdD7XHwoARN0-Zc_fk4ZA,Los Angeles Athletic Club,,"spa, gym, lodging, point_of_interest, health, establishment","431 W 7th St, Los Angeles, CA 90014, USA",90014,Los Angeles,California,United States,34.0469169,-118.2550353
ChIJnaCSkq5AmYARh_c4dM7FxUA,Reno,,"locality, political","Reno, NV, USA",,Reno,Nevada,United States,39.529919,-119.8142691
ChIJRYQdLTRHmYARu8Op-jB28TE,Silver Legacy Resort Casino,,"casino, lodging, point_of_interest, establishment","407 N Virginia St, Reno, NV 89501, USA",89501,Reno,Nevada,United States,39.5304918,-119.8149946
ChIJ080StzVHmYARD-YbD1sKARw,Eldorado Reno Resort Casino,,"lodging, point_of_interest, establishment","345 N Virginia St, Reno, NV 89501, USA",89501,Reno,Nevada,United States,39.5291595,-119.8146488
ChIJ8ZZtmjZHmYARPmy0CY53NYo,Circus Circus Reno,,"lodging, point_of_interest, establishment","500 N Sierra St, Reno, NV 89503, USA",89503,Reno,Nevada,United States,39.5313968,-119.8156128
ChIJBzXVmTNHmYAR6ipRaf8zVCE,J Resort,,"casino, lodging, point_of_interest, establishment","345 N Arlington Ave, Reno, NV 89501, USA",89501,Reno,Nevada,United States,39.5281442,-119.8188873
ChIJG7qnuls_mYARweP739kMgh8,Grand Sierra Resort and Casino,,"night_club, casino, movie_theater, lodging, bar, restaurant, food, point_of_interest, establishment","2500 E 2nd St, Reno, NV 89595, USA",89595,Reno,Nevada,United States,39.5230411,-119.7812235
ChIJX8m41WY_mYAR7oBrdT7oP9M,"Holiday Inn Express & Suites Reno Airport, an IHG Hotel",,"lodging, point_of_interest, establishment","2375 Market St, Reno, NV 89502, USA",89502,Reno,Nevada,United States,39.513984,-119.782839
ChIJ07LkRY9AmYARbPPabWOgb1I,Peppermill Resort Spa Casino,,"casino, lodging, spa, restaurant, food, point_of_interest, establishment","2707 S Virginia St, Reno, NV 89502, USA",89502,Reno,Nevada,United States,39.4976865,-119.801139
ChIJxQpVnjo_mYARW9gkVzXSKgY,Nugget Casino Resort,,"casino, lodging, point_of_interest, establishment","1100 Nugget Ave, Sparks, NV 89431, USA",89431,Sparks,Nevada,United States,39.53334069999999,-119.7582759
ChIJ38bZfCc_mYARVaorzvHHMps,Holiday Inn Reno-Sparks,,"lodging, point_of_interest, establishment","55 East Nugget Ave, Sparks, NV 89431, USA",89431,Sparks,Nevada,United States,39.53340499999999,-119.742487
ChIJzxcfI6qAa4cR1jaKJ_j0jhE,Denver,,"locality, political","Denver, CO, USA",,Denver,Colorado,United States,39.7392358,-104.990251
ChIJ8Y6vMNR4bIcRHgkd29qFnA4,Sheraton Denver Downtown Hotel,,"lodging, point_of_interest, establishment","1550 Court Pl, Denver, CO 80202, USA",80202,Denver,Colorado,United States,39.74212480000001,-104.989906
ChIJDY-k_tN4bIcR3ge2r3tcsmc,Sonesta Denver Downtown,,"lodging, point_of_interest, establishment","1450 Glenarm Pl, Denver, CO 80202, USA",80202,Denver,Colorado,United States,39.742273,-104.991928
ChIJYVuRFdF4bIcRhnRSkCCjaIE,Hyatt Regency Denver At Colorado Convention Center,,"lodging, point_of_interest, establishment","650 15th St, Denver, CO 80202, USA",80202,Denver,Colorado,United States,39.74340910000001,-104.9935641
ChIJ9dBRb9Z4bIcRD9UXGYyDqvY,"The Brown Palace Hotel and Spa, Autograph Collection",3,"lodging, point_of_interest, establishment","321 17th St, Denver, CO 80202, USA",80202,Denver,Colorado,United States,39.7439251,-104.9878805
ChIJUYEnWdZ4bIcRXQSg0Nxw30g,"Holiday Inn Express Denver Downtown, an IHG Hotel",,"lodging, point_of_interest, establishment","1715 Tremont Pl, Denver, CO 80202, USA",80202,Denver,Colorado,United States,39.74438759999999,-104.9883169
ChIJj9_ePSp_bIcRFRze2-_tagU,11th Avenue Hostel,,"lodging, point_of_interest, establishment","1112 Broadway, Denver, CO 80203, USA",80203,Denver,Colorado,United States,39.734122,-104.987145
ChIJjTsJpdF4bIcR2_djIN_EhVc,Embassy Suites by Hilton Denver Downtown Convention Center,,"lodging, point_of_interest, establishment","1420 Stout St, Denver, CO 80202, USA",80202,Denver,Colorado,United States,39.74415399999999,-104.9950276
ChIJD9OhG9d4bIcRY9HlDFVhKK0,Grand Hyatt Denver,,"restaurant, food, lodging, point_of_interest, establishment","1750 Welton St, Denver, CO 80202, USA",80202,Denver,Colorado,United States,39.74582150000001,-104.9891997
ChIJDUJ70Cl5bIcRrrE_lFPk55M,Hampton Inn & Suites Denver-Downtown,,"lodging, point_of_interest, establishment","1845 Sherman St, Denver, CO 80203, USA",80203,Denver,Colorado,United States,39.7455221,-104.985276
ChIJS5dFe_cZTIYRj2dH9qSb7Lk,Dallas,,"locality, political","Dallas, TX, USA",,Dallas,Texas,United States,32.7766642,-96.79698789999999
ChIJd8ztkRmZToYRoAJhaj3xwfE,Aloft Dallas Downtown,,"lodging, point_of_interest, establishment","1033 Young St, Dallas, TX 75202, USA",75202,Dallas,Texas,United States,32.7771833,-96.801087
ChIJEceT6RiZToYRamCabf48B6k,Magnolia Dallas Downtown,,"lodging, point_of_interest, establishment","1401 Commerce St, Dallas, TX 75201, USA",75201,Dallas,Texas,United States,32.7801591,-96.7991098
ChIJSf4EURiZToYR0KhpmIHWXpQ,The Adolphus,3,"lodging, point_of_interest, establishment","1321 Commerce St, Dallas, TX 75202, USA",75202,Dallas,Texas,United States,32.7798003,-96.80011669999999
ChIJn8aFxxiZToYR1tuZ71sZKeI,The Joule,,"lodging, point_of_interest, establishment","1530 Main St, Dallas, TX 75201, USA",75201,Dallas,Texas,United States,32.7805917,-96.79847219999999
ChIJpRbheR-ZToYRjrfQZ37KI2o,"Hotel Indigo Dallas Downtown, an IHG Hotel",2,"lodging, point_of_interest, establishment","1933 Main St, Dallas, TX 75201, USA",75201,Dallas,Texas,United States,32.7819004,-96.79441159999999
ChIJmczW8xeZToYRLT1AzM0hrrg,"Crowne Plaza Dallas Downtown, an IHG Hotel",,"lodging, point_of_interest, establishment","1015 Elm St, Dallas, TX 75202, USA",75202,Dallas,Texas,United States,32.7808613,-96.8035776
ChIJzZ8OFSOZToYR8E34w1-AprA,Fairmont Dallas,3,"lodging, restaurant, food, point_of_interest, establishment","1717 N Akard St, Dallas, TX 75201, USA",75201,Dallas,Texas,United States,32.7857161,-96.8017967
ChIJtyUklj2ZToYR9vHmTZJmVC0,SpringHill Suites by Marriott Dallas Downtown/West End,,"lodging, point_of_interest, establishment","1907 N Lamar St, Dallas, TX 75202, USA",75202,Dallas,Texas,United States,32.7828731,-96.8065663
ChIJ40wS9hOZToYRjJyhgvj-jZ8,Hyatt Regency Dallas,,"lodging, point_of_interest, establishment","300 Reunion Blvd, Dallas, TX 75207, USA",75207,Dallas,Texas,United States,32.7756262,-96.8095263
ChIJL3JhTpb4jYARIYHtuhG7EaU,Salinas,,"locality, political","Salinas, CA, USA",,Salinas,California,United States,36.6777372,-121.6555013
ChIJzZbuviPkjYAR0EwNtZ_pMNQ,The Monterey Hotel,,"lodging, point_of_interest, establishment","407 Calle Principal, Monterey, CA 93940, USA",93940,Monterey,California,United States,36.5998486,-121.8950037
ChIJzSZqMSLkjYARhre89y2eTco,Monterey Marriott,,"lodging, point_of_interest, establishment","350 Calle Principal, Monterey, CA 93940, USA",93940,Monterey,California,United States,36.6005554,-121.8951797
ChIJe1c9RiLkjYARNySCU9qvWVY,Portola Hotel & Spa at Monterey Bay,,"lodging, point_of_interest, establishment","Two Portola Plaza, Monterey, CA 93940, USA",93940,Monterey,California,United States,36.6016058,-121.8943043
ChIJD9E2GyLkjYARTWb72tToCVY,Hotel Pacific,,"lodging, point_of_interest, establishment","300 Pacific St, Monterey, CA 93940, USA",93940,Monterey,California,United States,36.6020706,-121.8956601
ChIJzXZaoiXkjYARVmFwGbf7WaU,Casa Munras Garden Hotel & Spa,,"spa, lodging, point_of_interest, establishment","700 Munras Ave, Monterey, CA 93940, USA",93940,Monterey,California,United States,36.595442,-121.8932357
ChIJ6aGUiybkjYARnocthbWIxp0,Colton Inn,,"lodging, point_of_interest, establishment","707 Pacific St, Monterey, CA 93940, USA",93940,Monterey,California,United States,36.5952311,-121.8972209
ChIJMWFTXiXkjYAR14BBv4AWU24,Hotel Abrego,,"lodging, restaurant, food, point_of_interest, establishment","755 Abrego St, Monterey, CA 93940, USA",93940,Monterey,California,United States,36.5948548,-121.8919284
ChIJ-63VoznkjYARAVVo0ftkBic,Monterey Bay Lodge,,"lodging, point_of_interest, establishment","55 Camino Aguajito, Monterey, CA 93940, USA",93940,Monterey,California,United States,36.599096,-121.883132
ChIJ2VZToxzkjYARve8tnY5C3WE,Monterey Bay Inn,,"lodging, point_of_interest, establishment","242 Cannery Row, Monterey, CA 93940, USA",93940,Monterey,California,United States,36.6111183,-121.8969573
ChIJs-Xb_9Qa24ARfHntwodp5aE,Palm Springs,,"locality, political","Palm Springs, CA, USA",,Palm Springs,California,United States,33.8302961,-116.5452921
ChIJJ215lbLi2oARrLM5uiuOSp4,Agua Caliente Resort Casino Spa Rancho Mirage,,"tourist_attraction, casino, lodging, spa, point_of_interest, establishment","32-250 Bob Hope Dr, Rancho Mirage, CA 92270, USA",92270,Rancho Mirage,California,United States,33.813915,-116.4093283
ChIJxzyvvap20IARS6--iWFXgoM,"Holiday Inn Express & Suites Twentynine Palms- Joshua Tree, an IHG Hotel",,"lodging, point_of_interest, establishment","72535 29 Palms Hwy, Twentynine Palms, CA 92277, USA",92277,Twentynine Palms,California,United States,34.1350123,-116.0797781
ChIJR2_7LkUd24AR5AlQQ2guJRE,The Westin Rancho Mirage Golf Resort & Spa,,"lodging, point_of_interest, establishment","71333 Dinah Shore Dr, Rancho Mirage, CA 92270, USA",92270,Rancho Mirage,California,United States,33.8000518,-116.417266
ChIJHVbIwdob24AR7SHDtLAGNcY,Days Inn by Wyndham Palm Springs,,"lodging, point_of_interest, establishment","1983 N Palm Canyon Dr, Palm Springs, CA 92262, USA",92262,Palm Springs,California,United States,33.8475294,-116.5478534
ChIJ2fL2XZIh24ARQRqejkfAA1E,sea mountain lifestyle resorts and clothing optional spas,,"night_club, lodging, spa, point_of_interest, establishment","66540 San Marcus Rd, Desert Hot Springs, CA 92240, USA",92240,Desert Hot Springs,California,United States,33.974522,-116.500265
ChIJv2OPiBD92oAR7XBZ7G33630,Marriott's Shadow Ridge I-The Villages,,"lodging, point_of_interest, establishment","9003 Shadow Ridge Rd, Palm Desert, CA 92211, USA",92211,Palm Desert,California,United States,33.78302699999999,-116.384585
ChIJY4ifApIh24ARd8UppFAjTng,Miracle Springs Resort & Spa,,"spa, lodging, point_of_interest, establishment","10625 Palm Dr, Desert Hot Springs, CA 92240, USA",92240,Desert Hot Springs,California,United States,33.97165,-116.5020472
ChIJ0XumdO8n24ARn6OrYueTTxE,Americas Best Value Inn & Suites Joshua Tree National Park,,"lodging, point_of_interest, establishment","56377 29 Palms Hwy, Yucca Valley, CA 92284, USA",92284,Yucca Valley,California,United States,34.11990900000001,-116.4345135
ChIJGWMCYrkb24AR6v_wgdM8iJ4,The Colony Palms Hotel and Bungalows,,"lodging, point_of_interest, establishment","572 N Indian Canyon Dr, Palm Springs, CA 92262, USA",92262,Palm Springs,California,United States,33.8312887,-116.5450461
ChIJ0X31pIK3voARo3mz1ebVzDo,Las Vegas,,"locality, political","Las Vegas, NV, USA",,Las Vegas,Nevada,United States,36.171563,-115.1391009
ChIJP_YNmqHDyIARtqyg5oGF5xw,Plaza Hotel & Casino,,"casino, lodging, point_of_interest, establishment","1 N Main St, Las Vegas, NV 89101, USA",89101,Las Vegas,Nevada,United States,36.171784,-115.146861
ChIJI9tTB6DDyIARBYf7r_X-rdE,Downtown Grand Hotel & Casino,,"casino, lodging, point_of_interest, establishment","206 N 3rd St, Las Vegas, NV 89101, USA",89101,Las Vegas,Nevada,United States,36.1716389,-115.1416128
ChIJFTJhO6DDyIARYs7dJsDxK2Y,Fremont Hotel & Casino,,"casino, point_of_interest, establishment","200 Fremont St, Las Vegas, NV 89101, USA",89101,Las Vegas,Nevada,United States,36.17079539999999,-115.1432647
ChIJv_WQA6HDyIAR_wdTCqIWDZg,California Hotel & Casino,,"casino, point_of_interest, establishment","12 E Ogden Ave, Las Vegas, NV 89101, USA",89101,Las Vegas,Nevada,United States,36.1729812,-115.1448364
ChIJM5pPyaHDyIARi2GWubblECA,Golden Nugget Las Vegas Hotel & Casino,2,"casino, aquarium, lodging, bar, restaurant, food, point_of_interest, establishment","129 E Fremont St, Las Vegas, NV 89101, USA",89101,Las Vegas,Nevada,United States,36.16996710000001,-115.1448235
ChIJi30u1KbDyIARNE76kZcu75w,Main Street Station Casino Brewery Hotel,,"casino, lodging, food, point_of_interest, establishment","200 N Main St, Las Vegas, NV 89101, USA",89101,Las Vegas,Nevada,United States,36.17372690000001,-115.1454445
ChIJP_e37KHDyIAR972mwUmavqE,Golden Gate Hotel & Casino,,"tourist_attraction, casino, lodging, point_of_interest, establishment","1 Fremont St, Las Vegas, NV 89101, USA",89101,Las Vegas,Nevada,United States,36.17119819999999,-115.1462426
ChIJPxI0X4TDyIARkheCu7sXfMw,Bungalows Hostel,,"lodging, point_of_interest, establishment","1236 S Las Vegas Blvd, Las Vegas, NV 89104, USA",89104,Las Vegas,Nevada,United States,36.155914,-115.149792
ChIJ8-0pEYjDyIARB4jQJR4xnxs,"The STRAT Hotel, Casino & Tower",2,"lodging, point_of_interest, establishment","2000 Las Vegas Blvd S, Las Vegas, NV 89104, USA",89104,Las Vegas,Nevada,United States,36.1475119,-115.1565537
ChIJgSFEe3MNkIAR2MtPBNH1dlg,Stockton,,"locality, political","Stockton, CA, USA",,Stockton,California,United States,37.9577016,-121.2907796
ChIJ45qcIfpAkIARpBBmpoLP-s0,Hampton Inn & Suites Manteca,,"lodging, point_of_interest, establishment","1461 Bass Pro Dr, Manteca, CA 95336, USA",95336,Manteca,California,United States,37.7799385,-121.2264884
ChIJASh3smUVkIAR0GIABSyzdD8,Hampton Inn & Suites Lathrop,,"lodging, point_of_interest, establishment","103 E Louise Ave, Lathrop, CA 95330, USA",95330,Lathrop,California,United States,37.812579,-121.2933862
ChIJ69KFfJ9BkIARmKIyP6QG5xY,"Motel 6 Manteca, CA",,"lodging, point_of_interest, establishment","150 Northwoods Ave, Manteca, CA 95336, USA",95336,Manteca,California,United States,37.7985517,-121.1934305
ChIJK9aLBKBBkIARbHH57fpnREQ,"Holiday Inn Express & Suites Manteca City Center, an IHG Hotel",,"lodging, point_of_interest, establishment","179 Commerce Ave, Manteca, CA 95336, USA",95336,Manteca,California,United States,37.79601219999999,-121.194703
ChIJQVh5C2wVkIARnctW2Ji-5Cg,"Holiday Inn Express & Suites Lathrop, an IHG Hotel",,"lodging, point_of_interest, establishment","15688 S Harlan Rd, Lathrop, CA 95330, USA",95330,Lathrop,California,United States,37.819458,-121.2912538
ChIJURsXkJ9BkIARK2ro6X-OzU8,Best Western Plus Executive Inn & Suites,,"lodging, point_of_interest, establishment","1415 E Yosemite Ave, Manteca, CA 95336, USA",95336,Manteca,California,United States,37.7980249,-121.1927184
ChIJVcuNAxxQkIARA7ihp42yXlc,Fairfield Inn & Suites by Marriott Modesto Salida,,"lodging, point_of_interest, establishment","4342 Salida Blvd, Salida, CA 95368, USA",95368,Salida,California,United States,37.701832,-121.0746986
ChIJHeVuYhtQkIARKf3lhoQJ34M,"Holiday Inn Express & Suites Modesto-Salida, an IHG Hotel",,"lodging, point_of_interest, establishment","4300 Bangs Ave, Modesto, CA 95356, USA",95356,Modesto,California,United States,37.70398799999999,-121.073629
ChIJhxPCAQJQkIARDnddMIjFKCc,Hampton Inn & Suites Modesto-Salida,,"lodging, point_of_interest, establishment","4921 Sisk Rd, Salida, CA 95368, USA",95368,Salida,California,United States,37.7089784,-121.0789919
ChIJ7THRiJQ9UocRyjFNSKC3U1s,Salt Lake City,,"locality, political","Salt Lake City, UT, USA",,Salt Lake City,Utah,United States,40.7607793,-111.8910474
ChIJ_w0HyRD1UocRNAS1sIpDkvA,The Little America Hotel - Salt Lake City,,"lodging, restaurant, food, point_of_interest, establishment","500 Main St, Salt Lake City, UT 84101, USA",84101,Salt Lake City,Utah,United States,40.7577957,-111.8920217
ChIJc3qCMBf1UocRvasmc_pxrm8,The Grand America Hotel,,"night_club, lodging, bar, restaurant, food, point_of_interest, establishment","555 Main St, Salt Lake City, UT 84111, USA",84111,Salt Lake City,Utah,United States,40.7573321,-111.8907499
ChIJRxKPcgX1UocRyL0KCwvetvk,Hilton Salt Lake City Center,,"lodging, point_of_interest, establishment","255 S W Temple St, Salt Lake City, UT 84101, USA",84101,Salt Lake City,Utah,United States,40.76392499999999,-111.893283
ChIJrSCHnQ_1UocR-QPIMuWT8Zk,Kimpton Hotel Monaco Salt Lake City,,"lodging, point_of_interest, establishment","15 W 200 S, Salt Lake City, UT 84101, USA",84101,Salt Lake City,Utah,United States,40.76469359999999,-111.892256
ChIJ4fx8Pw71UocRF_BAy0cmwJE,Salt Lake City Marriott City Center,,"lodging, point_of_interest, establishment","220 S State St, Salt Lake City, UT 84111, USA",84111,Salt Lake City,Utah,United States,40.764347,-111.8885574
ChIJ1VuqcBv1UocR-7i4w82_Nmk,Crystal Inn Hotel & Suites Salt Lake City,,"lodging, point_of_interest, establishment","230 W 500 S, Salt Lake City, UT 84101, USA",84101,Salt Lake City,Utah,United States,40.7588808,-111.897774
ChIJU9-emBz1UocRCnzwHRlo7X4,Hampton Inn Salt Lake City-Downtown,,"lodging, point_of_interest, establishment","425 S 300 W, Salt Lake City, UT 84101, USA",84101,Salt Lake City,Utah,United States,40.7599234,-111.8990457
ChIJJ1gNVRn1UocR5O0LJDOxHAc,Hilton Garden Inn Salt Lake City Downtown,,"lodging, point_of_interest, establishment","250 W 600 S, Salt Lake City, UT 84101, USA",84101,Salt Lake City,Utah,United States,40.7570263,-111.898571
ChIJO_lt8wf1UocR0i-kG7tzsOI,Salt Lake Marriott Downtown at City Creek,,"lodging, point_of_interest, establishment","75 S W Temple St, Salt Lake City, UT 84101, USA",84101,Salt Lake City,Utah,United States,40.76757600000001,-111.8933291
